"location","city","country","address","latitude","longitude","co2_kg","distance_km","plane trips_amount","train trips_amount"
"Seattle,  United States","Seattle"," United States","Seattle, King County, Washington, United States","47.6038321","-122.3300624","0.0","0.007","0","118"
"Victoria,  Canada","Victoria"," Canada","Victoria, Capital Regional District, British Columbia, Canada","48.4283182","-123.3649533","100.219","3351.794","0","14"
"Vancouver,  Canada","Vancouver"," Canada","Vancouver, District of North Vancouver, British Columbia, Canada","49.2608724","-123.1139529","242.514","8110.835","0","21"
"Bellingham,  United States","Bellingham"," United States","Bellingham, Whatcom County, Washington, United States","48.7544012","-122.4788361","291.804","9759.329","0","38"
"Pierre,  United States","Pierre"," United States","Pierre, Hughes County, South Dakota, 57501, United States","44.3683644","-100.3511367","644.598","3459.191","1","0"
"Little Rock,  United States","Little Rock"," United States","Little Rock, Pulaski County, Arkansas, United States","34.7464809","-92.2895948","1046.488","5732.167","1","0"
"Bismarck,  United States","Bismarck"," United States","Bismarck, Burleigh County, North Dakota, United States","46.808327","-100.783739","1215.539","6499.229","2","0"
"Dover,  United States","Dover"," United States","Dover, Kent County, Delaware, United States","39.158168","-75.5243682","1271.474","7670.963","1","0"
"Augusta,  United States","Augusta"," United States","Augusta, Kennebec County, Maine, 04330, United States","44.310545","-69.7792759","1324.729","8001.042","1","0"
"Bogota,  Colombia","Bogota"," Colombia","Bogota, Bogota Capital District, 11001, Colombia","4.6533326","-74.083652","2168.98","13233.724","1","0"
"Jackson,  United States","Jackson"," United States","Jackson, Hinds County, Mississippi, United States","32.2990021","-90.1847691","2324.17","12764.126","2","0"
"Waterloo,  Canada","Waterloo"," Canada","Waterloo, Region of Waterloo, Southwestern Ontario, Ontario, Canada","43.4652699","-80.5222961","2365.12","12994.35","2","0"
"Hamilton,  Canada","Hamilton"," Canada","Hamilton, Golden Horseshoe, Ontario, Canada","43.2560802","-79.8728583","2405.974","13224.031","2","0"
"Carson City,  United States","Carson City"," United States","Carson City, Nevada, United States","39.1649125","-119.7666496","2568.808","11529.718","6","0"
"Vilnius,  Lithuania","Vilnius"," Lithuania","Vilnius, Vilnius city municipality, Vilnius County, Lithuania","54.6870458","25.2829111","2693.578","16485.192","1","0"
"Prague,  Czechia","Prague"," Czechia","Prague, Czechia","50.0596288","14.446459273258009","2741.948","16784.992","1","0"
"Madrid,  Spain","Madrid"," Spain","Madrid, Área metropolitana de Madrid y Corredor del Henares, Community of Madrid, 28001, Spain","40.4167047","-3.7035825","2779.949","17020.52","1","0"
"Guam,  United States","Guam"," United States","Guam, Barrigada Municipality, Guam, United States","13.450125700000001","144.75755102972062","2977.544","18245.221","1","0"
"Brazil, Brazil","Brazil","Brazil","Brazil","-10.3333333","-53.2","3049.247","18689.632","1","0"
"Taipei,  Taiwan","Taipei"," Taiwan","Taipei, Taiwan","25.0375198","121.5636796","3173.181","19457.782","1","0"
"Lincoln,  United States","Lincoln"," United States","Lincoln, Lancaster County, Nebraska, United States","40.8088861","-96.7077751","3191.103","17323.504","4","0"
"Missoula,  United States","Missoula"," United States","Missoula, Missoula County, Montana, United States","46.8701049","-113.995267","3655.643","15221.047","12","0"
"Singapore, Singapore","Singapore","Singapore","Singapore","1.357107","103.8194992","4221.506","25955.319","1","0"
"Stockholm,  Sweden","Stockholm"," Sweden","Stockholm, Stockholms kommun, Stockholm County, 111 29, Sweden","59.3251172","18.0710935","4967.323","30368.252","2","0"
"Pretoria,  South Africa","Pretoria"," South Africa","Pretoria, City of Tshwane Metropolitan Municipality, Gauteng, 0126, South Africa","-25.7459374","28.1879444","5349.715","32947.974","1","0"
"Salem,  United States","Salem"," United States","Salem, Marion County, Oregon, United States","44.9391565","-123.033121","5691.219","19275.684","32","0"
"Montpelier,  United States","Montpelier"," United States","Montpelier, Washington County, Vermont, 05602, United States","44.2602164","-72.575114","6307.853","37994.254","5","0"
"Anchorage,  United States","Anchorage"," United States","Anchorage, Alaska, United States","61.2163129","-149.894852","6785.617","36939.124","8","0"
"Tel Aviv-Yafo,  Israel","Tel Aviv-Yafo"," Israel","Tel Aviv-Yafo, Tel Aviv Subdistrict, Tel Aviv District, Israel","32.0852997","34.7818064","7078.872","43455.67","2","0"
"Toronto,  Canada","Toronto"," Canada","Toronto, Golden Horseshoe, Ontario, Canada","43.6534817","-79.3839347","7258.342","39899.339","6","0"
"Cheyenne,  United States","Cheyenne"," United States","Cheyenne, Laramie County, Wyoming, 82002, United States","41.139981","-104.820246","8197.174","43721.413","14","0"
"Geneva,  Switzerland","Geneva"," Switzerland","Geneva, Grand Genève, Geneva, Switzerland","46.2017559","6.1466014","8277.498","50675.125","3","0"
"Clemson,  United States","Clemson"," United States","Clemson, Pickens County, South Carolina, United States","34.6850749","-82.8364111","8574.989","49805.271","7","0"
"Columbia,  United States","Columbia"," United States","Columbia, Richland County, South Carolina, United States","34.0007493","-81.0343313","8763.827","52303.398","7","0"
"Copenhagen,  Denmark","Copenhagen"," Denmark","Copenhagen, Copenhagen Municipality, Capital Region of Denmark, 1357, Denmark","55.6867243","12.5700724","10184.888","62287.508","4","0"
"Providence,  United States","Providence"," United States","Providence, Providence County, Rhode Island, United States","41.8239891","-71.4128343","10598.286","64011.149","8","0"
"Oklahoma City,  United States","Oklahoma City"," United States","Oklahoma City, Oklahoma County, Oklahoma, 73104:73106, United States","35.4729886","-97.5170536","10780.734","58794.906","12","0"
"Rome,  Italy","Rome"," Italy","Rome, Roma Capitale, Lazio, Italy","41.8933203","12.4829321","11902.429","72932.857","4","0"
"British Virgin Islands, British Virgin Islands","British Virgin Islands","British Virgin Islands","British Virgin Islands","18.4024395","-64.5661642","12031.261","73312.058","6","0"
"Topeka,  United States","Topeka"," United States","Topeka, Shawnee County, Kansas, United States","39.049011","-95.677556","12036.872","65554.475","14","0"
"Pullman,  United States","Pullman"," United States","Pullman, Whitman County, Washington, United States","46.7304268","-117.173895","12767.927","47391.62","59","0"
"Baton Rouge,  United States","Baton Rouge"," United States","Baton Rouge, East Baton Rouge Parish, Louisiana, United States","30.4459596","-91.18738","13062.694","71775.503","11","0"
"Salt Lake City,  United States","Salt Lake City"," United States","Salt Lake City, Salt Lake County, Utah, 84139, United States","40.7596198","-111.8867975","14933.671","72084.105","32","0"
"Frankfort,  United States","Frankfort"," United States","Frankfort, Franklin County, Kentucky, 40601, United States","38.2009055","-84.8732836","15098.088","82916.112","13","0"
"Des Moines,  United States","Des Moines"," United States","Des Moines, Polk County, Iowa, United States","41.5910323","-93.6046655","15566.1","84790.996","18","0"
"Concord,  United States","Concord"," United States","Concord, Merrimack County, New Hampshire, United States","43.207178","-71.537476","15599.522","94170.286","12","0"
"Montreal,  Canada","Montreal"," Canada","Montreal, Urban agglomeration of Montreal, Montreal (06), Quebec, Canada","45.4972159","-73.6103642","17390.73","102795.444","14","0"
"Albuquerque,  United States","Albuquerque"," United States","Albuquerque, Bernalillo County, New Mexico, United States","35.0841034","-106.650985","17644.162","95182.063","25","0"
"San Juan,  United States","San Juan"," United States","San Juan, Puerto Rico, United States","18.465299","-66.116666","17702.038","107830.674","9","0"
"St. Louis,  United States","St. Louis"," United States","St. Louis, City of Saint Louis, Missouri, United States","38.6529545","-90.24111656024635","18181.224","99493.408","18","0"
"Socorro,  United States","Socorro"," United States","Socorro, Socorro County, New Mexico, United States","34.0572858","-106.8930799","18327.305","99069.593","25","0"
"Lansing,  United States","Lansing"," United States","Lansing, Ingham County, Michigan, United States","42.7337712","-84.5553805","21739.188","119194.009","20","0"
"Tokyo,  Japan","Tokyo"," Japan","Tokyo, Japan","35.6828387","139.7594549","22645.373","138469.552","9","0"
"Abu Dhabi,  United Arab Emirates","Abu Dhabi"," United Arab Emirates","Abu Dhabi, Al Mushrif, Abu Dhabi, Abu Dhabi Emirate, 36668, United Arab Emirates","24.4538352","54.3774014","23428.198","143950.478","6","0"
"Ann Arbor,  United States","Ann Arbor"," United States","Ann Arbor, Washtenaw County, Michigan, United States","42.2681569","-83.7312291","23444.804","128631.837","21","0"
"Paris,  France","Paris"," France","Paris, Ile-de-France, Metropolitan France, France","48.8566969","2.3514616","23658.318","144747.803","9","0"
"Sjanghai,  China","Sjanghai"," China","Sjanghai, Huangpu District, Shanghai, 200001, China","31.2322758","121.4692071","23987.752","146999.298","8","0"
"Santiago,  Chile","Santiago"," Chile","Santiago, Provincia de Santiago, Santiago Metropolitan Region, Chile","-33.4377756","-70.6504502","30442.748","186797.825","9","0"
"Morgantown,  United States","Morgantown"," United States","Morgantown, Monongalia County, West Virginia, United States","39.6296809","-79.9559437","30894.725","173891.251","25","0"
"Sydney,  Australia","Sydney"," Australia","Sydney, New South Wales, Australia","-33.8548157","151.2164539","32458.324","199500.053","8","0"
"Seoul,  South Korea","Seoul"," South Korea","Seoul, Nowon-gu, South Korea","37.5666791","126.9782914","32632.404","199740.397","12","0"
"Dallas,  United States","Dallas"," United States","Dallas, Dallas County, Texas, United States","32.7762719","-96.7968559","33609.447","183811.772","34","0"
"Berlin,  Germany","Berlin"," Germany","Berlin, 10117, Germany","52.5170365","13.3888599","34493.171","211063.809","13","0"
"Tuscaloosa,  United States","Tuscaloosa"," United States","Tuscaloosa, Tuscaloosa County, Alabama, United States","33.2095614","-87.5675258","36149.152","198695.223","30","0"
"Beijing,  China","Beijing"," China","Beijing, Dongcheng District, Beijing, 100010, China","39.906217","116.3912757","39734.246","243338.431","14","0"
"Albany,  United States","Albany"," United States","Albany, Albany County, New York, 12207, United States","42.6511674","-73.754968","40310.61","242374.112","32","0"
"Austin,  United States","Austin"," United States","Austin, Travis County, Texas, United States","30.2711286","-97.7436995","40550.29","222077.374","39","0"
"Indianapolis,  United States","Indianapolis"," United States","Indianapolis, Marion County, Indiana, United States","39.7683331","-86.1583502","40556.103","222412.578","37","0"
"Saint Paul,  United States","Saint Paul"," United States","Saint Paul, Ramsey County, Minnesota, United States","44.9497487","-93.0931028","41422.18","225269.788","50","0"
"Houston,  United States","Houston"," United States","Houston, Harris County, Texas, United States","29.7589382","-95.3676974","42124.254","231077.569","38","0"
"Perth,  Australia","Perth"," Australia","Perth, City of Perth, Western Australia, 6000, Australia","-31.9527121","115.8604796","43518.147","267839.384","9","0"
"Flagstaff,  United States","Flagstaff"," United States","Flagstaff, Coconino County, Arizona, United States","35.1987522","-111.6518229","44105.081","235939.452","72","0"
"Raleigh,  United States","Raleigh"," United States","Raleigh, Wake County, North Carolina, United States","35.7803977","-78.6390989","44159.62","266021.25","35","0"
"Nashville,  United States","Nashville"," United States","Nashville, Davidson County, Tennessee, United States","36.1622767","-86.7742984","46205.902","253722.357","40","0"
"Madison,  United States","Madison"," United States","Madison, Dane County, Wisconsin, United States","43.074761","-89.3837613","48603.333","265537.008","51","0"
"Amsterdam,  Netherlands","Amsterdam"," Netherlands","Amsterdam, North Holland, Netherlands","52.3727598","4.8936041","48619.332","297360.094","19","0"
"New York,  United States","New York"," United States","New York, United States","40.7127281","-74.0060152","49964.181","301502.442","39","0"
"Columbus,  United States","Columbus"," United States","Columbus, Franklin County, Ohio, United States","39.9622601","-83.0007065","51770.272","284400.592","44","0"
"Ithaca,  United States","Ithaca"," United States","Ithaca, Ithaca Town, Tompkins County, New York, United States","42.4396039","-76.4968019","52913.246","309099.323","43","0"
"Tucson,  United States","Tucson"," United States","Tucson, Pima County, Arizona, 85701, United States","32.2228765","-110.9748477","53709.767","290178.421","74","0"
"Denver,  United States","Denver"," United States","Denver, Denver County, Colorado, United States","39.7392364","-104.9848623","54593.299","292071.433","89","0"
"Lynchburg,  United States","Lynchburg"," United States","Lynchburg, Virginia, United States","37.4137536","-79.1422464","54606.575","322409.882","44","0"
"Trenton,  United States","Trenton"," United States","Trenton, Mercer County, New Jersey, United States","40.2170575","-74.7429463","54688.311","329944.073","43","0"
"Rochester,  United States","Rochester"," United States","Rochester, Monroe County, New York, United States","43.157285","-77.615214","55611.654","313018.633","45","0"
"Tallahassee,  United States","Tallahassee"," United States","Tallahassee, Leon County, Florida, United States","30.4380832","-84.2809332","56419.082","337297.024","45","0"
"New Haven,  United States","New Haven"," United States","New Haven, New Haven County, Connecticut, United States","41.3082138","-72.9250518","58370.982","352350.031","45","0"
"Honolulu,  United States","Honolulu"," United States","Honolulu, Honolulu County, Hawaii, United States","21.304547","-157.855676","58436.157","353592.592","41","0"
"London,  United Kingdom","London"," United Kingdom","London, Greater London, England, United Kingdom","51.5073219","-0.1276474","65478.387","400385.251","26","0"
"Philadelphia,  United States","Philadelphia"," United States","Philadelphia, Philadelphia County, Pennsylvania, United States","39.9527237","-75.1635262","67110.481","404840.382","53","0"
"Charlottesville,  United States","Charlottesville"," United States","Charlottesville, Virginia, United States","38.029306","-78.4766781","69618.481","411916.79","56","0"
"Chicago,  United States","Chicago"," United States","Chicago, Cook County, Illinois, United States","41.8755616","-87.6244212","77455.254","423962.99","76","0"
"Atlanta,  United States","Atlanta"," United States","Atlanta, Fulton County, Georgia, United States","33.7489924","-84.3902644","79371.559","448680.59","64","0"
"State College,  United States","State College"," United States","State College, Centre County, Pennsylvania, United States","40.7944504","-77.8616386","84692.138","493150.212","69","0"
"San Diego,  United States","San Diego"," United States","San Diego, San Diego County, California, 92101, United States","32.7174202","-117.1627728","91269.803","489499.251","143","0"
"San Francisco,  United States","San Francisco"," United States","San Francisco, California, United States","37.7790262","-122.419906","94054.269","447922.776","205","0"
"Washington,  United States","Washington"," United States","Washington, District of Columbia, United States","38.8950368","-77.0365427","96412.143","575470.302","77","0"
"Los Angeles,  United States","Los Angeles"," United States","Los Angeles, Los Angeles County, California, United States","34.0536909","-118.242766","154773.236","824960.497","267","0"
"Boston,  United States","Boston"," United States","Boston, Suffolk County, Massachusetts, United States","42.3602534","-71.0582912","309948.142","1872005.448","234","0"
"Baltimore,  United States","Baltimore"," United States","Baltimore, Maryland, United States","39.2908816","-76.610759","413695.494","2472923.643","330","0"