"location","city","country","address","latitude","longitude","co2_kg","distance_km","plane trips_amount","train trips_amount"
"Vancouver,  Canada","Vancouver"," Canada","Vancouver, District of North Vancouver, British Columbia, Canada","49.2608724","-123.1139529","0.0","0.0","0","17"
"Burnaby,  Canada","Burnaby"," Canada","Burnaby, District of North Vancouver, Metro Vancouver Regional District, British Columbia, Canada","49.2433804","-122.9725459","4.997","167.137","0","8"
"Victoria,  Canada","Victoria"," Canada","Victoria, Capital Regional District, British Columbia, Canada","48.4283182","-123.3649533","5.644","188.761","0","1"
"Seattle,  United States","Seattle"," United States","Seattle, King County, Washington, United States","47.6038321","-122.3300624","46.193","1544.921","0","4"
"Lethbridge,  Canada","Lethbridge"," Canada","Lethbridge, Alberta, Canada","49.694285","-112.851562","345.973","1484.852","1","0"
"Pasadena,  United States","Pasadena"," United States","Pasadena, California, United States","34.1476452","-118.1444779","644.54","3458.864","1","0"
"Prescott,  United States","Prescott"," United States","Prescott, Yavapai County, Arizona, United States","34.5399962","-112.4687616","688.572","3709.436","1","0"
"Northfield,  United States","Northfield"," United States","Northfield, Rice County, Minnesota, United States","44.4582041","-93.161159","853.199","4645.481","1","0"
"Bozeman,  United States","Bozeman"," United States","Bozeman, Gallatin County, Montana, United States","45.6794293","-111.044047","869.557","3957.354","2","0"
"Kirksville,  United States","Kirksville"," United States","Kirksville, Adair County, Missouri, 63501, United States","40.1948848","-92.5833939","948.873","5183.371","1","0"
"Kane County,  United States","Kane County"," United States","Kane County, Illinois, United States","41.923434","-88.4248315","1020.134","5584.001","1","0"
"Springfield,  United States","Springfield"," United States","Springfield, Sangamon County, Illinois, United States","39.7990175","-89.6439575","1032.093","5651.235","1","0"
"Dallas,  United States","Dallas"," United States","Dallas, Dallas County, Texas, United States","32.7762719","-96.7968559","1038.549","5687.534","1","0"
"Urbana,  United States","Urbana"," United States","Urbana, Champaign County, Illinois, United States","40.1117174","-88.207301","1062.151","5820.226","1","0"
"Hamilton,  Canada","Hamilton"," Canada","Hamilton, Golden Horseshoe, Ontario, Canada","43.2560802","-79.8728583","1214.262","6686.132","1","0"
"Rochester,  United States","Rochester"," United States","Rochester, Monroe, New York, United States","43.157285","-77.615214","1241.095","7022.084","1","0"
"Montreal,  Canada","Montreal"," Canada","Montreal, Urban agglomeration of Montreal, Montreal (06), Quebec, Canada","45.4972159","-73.6103642","1244.051","7367.09","1","0"
"Hanover,  United States","Hanover"," United States","Hanover, York County, Pennsylvania, 17331, United States","39.8063247","-76.9842735","1252.709","7481.62","1","0"
"Princeton,  United States","Princeton"," United States","Princeton, Mercer County, New Jersey, United States","40.3492744","-74.6592958","1285.097","7755.404","1","0"
"Boston,  United States","Boston"," United States","Boston, Suffolk County, Massachusetts, United States","42.3602534","-71.0582912","1332.414","8048.674","1","0"
"Winnipeg,  Canada","Winnipeg"," Canada","Winnipeg, Winnipeg (city), Manitoba, Canada","49.8955367","-97.1384584","1384.201","7459.026","2","0"
"Stanford,  United States","Stanford"," United States","Stanford, Palo Alto, Santa Clara County, California, United States","37.426540700000004","-122.17029258409187","1534.022","7908.608","3","0"
"Chicago,  United States","Chicago"," United States","Chicago, Cook County, Illinois, United States","41.8755616","-87.6244212","2083.351","11410.221","2","0"
"Tucson,  United States","Tucson"," United States","Tucson, Pima County, Arizona, United States","32.2228765","-110.9748477","2373.619","12880.471","3","0"
"Toronto,  Canada","Toronto"," Canada","Toronto, Golden Horseshoe, Ontario, Canada","43.6534817","-79.3839347","2433.495","13434.491","2","0"
"State College,  United States","State College"," United States","State College, Centre County, Pennsylvania, United States","40.7944504","-77.8616386","2468.962","14480.965","2","0"
"Portsmouth,  United Kingdom","Portsmouth"," United Kingdom","Portsmouth, South East England, England, United Kingdom","50.8036831","-1.075614","2487.459","15207.661","1","0"
"Paris,  France","Paris"," France","Paris, Ile-de-France, Metropolitan France, France","48.8566969","2.3514616","2590.301","15845.08","1","0"
"Seoul,  South Korea","Seoul"," South Korea","Seoul, Nowon-gu, South Korea","37.5666791","126.9782914","2667.221","16321.829","1","0"
"Warsaw,  Poland","Warsaw"," Poland","Warsaw, Masovian Voivodeship, Poland","52.2319581","21.0067249","2690.183","16464.152","1","0"
"Madrid,  Spain","Madrid"," Spain","Madrid, Área metropolitana de Madrid y Corredor del Henares, Community of Madrid, 28001, Spain","40.4167047","-3.7035825","2749.477","16831.657","1","0"
"Vienna,  Austria","Vienna"," Austria","Vienna, Austria","48.2083537","16.3725042","2776.979","17002.114","1","0"
"Bologna,  Italy","Bologna"," Italy","Bologna, Emilia-Romagna, Italy","44.4937577","11.3430308","2838.716","17384.762","1","0"
"Rome,  Italy","Rome"," Italy","Rome, Roma Capitale, Lazio, Italy","41.8933203","12.4829321","2935.103","17982.166","1","0"
"Shanghai,  China","Shanghai"," China","Shanghai, Huangpu District, Shanghai, 200001, China","31.2322758","121.4692071","2946.573","18053.259","1","0"
"Cagliari,  Italy","Cagliari"," Italy","Cagliari, Sardinia, Italy","39.2169525","9.1128513","2975.906","18235.065","1","0"
"Hefei City,  China","Hefei City"," China","Hefei City, Anhui, China","31.8228094","117.2218033","3005.274","18417.088","1","0"
"Hong Kong Island,  China","Hong Kong Island"," China","Hong Kong Island, Hong Kong, China","22.2793278","114.1628131","3343.708","20514.708","1","0"
"Rio de Janeiro,  Brazil","Rio de Janeiro"," Brazil","Rio de Janeiro, Região Geográfica Imediata do Rio de Janeiro, Região Metropolitana do Rio de Janeiro, Região Geográfica Intermediária do Rio de Janeiro, Rio de Janeiro, Southeast Region, Brazil","-22.9110137","-43.2093727","3655.256","22445.688","1","0"
"Kolkata,  India","Kolkata"," India","Kolkata, Howrah, Thakurpukur Maheshtala, Howrah, West Bengal, 711101, India","22.5414185","88.35769124388872","3726.768","22888.92","1","0"
"Philadelphia,  United States","Philadelphia"," United States","Philadelphia, Philadelphia County, Pennsylvania, United States","39.9527237","-75.1635262","3842.268","23185.491","3","0"
"New York,  United States","New York"," United States","New York, United States","40.7127281","-74.0060152","3880.821","23424.442","3","0"
"Potsdam,  Germany","Potsdam"," Germany","Potsdam, Brandenburg, Germany","52.4009309","13.0591397","5217.029","31915.936","2","0"
"Cape Town,  South Africa","Cape Town"," South Africa","Cape Town, City of Cape Town, Western Cape, 8001, South Africa","-33.928992","18.417396","5339.661","32885.664","1","0"
"Prague,  Czechia","Prague"," Czechia","Prague, Czechia","50.0596288","14.446459273258009","5394.711","33017.211","2","0"
"Nottingham,  United Kingdom","Nottingham"," United Kingdom","Nottingham, Nottinghamshire, East Midlands, England, United Kingdom","52.9534193","-1.1496461","7274.142","44456.306","3","0"
"Kyoto,  Japan","Kyoto"," Japan","Kyoto, Kyoto Prefecture, Japan","35.021041","135.7556075","7704.399","47123.049","3","0"
"Waterloo,  Canada","Waterloo"," Canada","Waterloo, Region of Waterloo, Southwestern Ontario, Ontario, Canada","43.4652699","-80.5222961","9566.118","52571.295","8","0"
"Leiden,  Netherlands","Leiden"," Netherlands","Leiden, Zoeterwoude, South Holland, Netherlands","52.1518157","4.4811088666204295","10076.771","61617.396","4","0"
"County Durham,  United Kingdom","County Durham"," United Kingdom","County Durham, North East England, England, United Kingdom","54.666667","-1.75","11841.021","72342.595","5","0"
"Tokyo,  Japan","Tokyo"," Japan","Tokyo, Japan","35.6828387","139.7594549","19761.623","120805.672","8","0"