"location","city","country","address","latitude","longitude","co2_kg","distance_km","plane trips_amount","train trips_amount"
"South Hadley,  United States","South Hadley"," United States","South Hadley, Hampshire County, Massachusetts, 01075, United States","42.2495463","-72.582258","0.0","0.0","0","1"
"Amherst,  United States","Amherst"," United States","Amherst, Hampshire County, Massachusetts, United States","42.3685658","-72.505714","1.753","58.62","0","2"
"Middletown,  United States","Middletown"," United States","Middletown, Middlesex County, Connecticut, United States","41.54961415","-72.65157756750801","4.667","156.08","0","1"
"Providence,  United States","Providence"," United States","Providence, Providence County, Rhode Island, United States","41.8239891","-71.4128343","6.431","215.093","0","1"
"Needham,  United States","Needham"," United States","Needham, Norfolk County, Massachusetts, United States","42.2806488","-71.2364844","6.626","221.59","0","1"
"Boston,  United States","Boston"," United States","Boston, Suffolk County, Massachusetts, United States","42.3602534","-71.0582912","15.061","503.711","0","2"
"Cambridge,  United States","Cambridge"," United States","Cambridge, Middlesex County, Massachusetts, United States","42.3750997","-71.1056157","51.161","1711.061","0","7"
"New York,  United States","New York"," United States","New York, United States","40.7127281","-74.0060152","74.632","2496.067","0","6"
"University of Maryland,  United States","University of Maryland"," United States","University of Maryland, College Park, University Boulevard East, Berwyn, College Park, Prince George's County, Maryland, 20740, United States","38.99203005","-76.94610290199051","259.652","1032.884","1","0"
"London,  Canada","London"," Canada","London, Southwestern Ontario, Ontario, N6A 1G4, Canada","42.9836747","-81.2496068","334.96","1427.187","1","0"
"West Lafayette,  United States","West Lafayette"," United States","West Lafayette, Tippecanoe County, Indiana, United States","40.4258686","-86.9080655","486.539","2423.2","1","0"
"Evanston,  United States","Evanston"," United States","Evanston, Evanston Township, Cook County, Illinois, United States","42.0447388","-87.6930459","494.165","2488.698","1","0"
"Urbana,  United States","Urbana"," United States","Urbana, Champaign County, Illinois, United States","40.1117174","-88.207301","513.437","2654.207","1","0"
"Greenbelt,  United States","Greenbelt"," United States","Greenbelt, Good Luck Road, New Carrollton, Prince George's County, Maryland, 20706, United States","38.9937333","-76.883065797021","516.314","2050.117","2","0"
"Baltimore,  United States","Baltimore"," United States","Baltimore, Maryland, United States","39.2908816","-76.610759","730.791","2834.769","3","0"
"Flagstaff,  United States","Flagstaff"," United States","Flagstaff, Coconino County, Arizona, United States","35.1987522","-111.6518229","1230.856","6893.894","1","0"
"Orlando,  United States","Orlando"," United States","Orlando, Orange County, Florida, United States","28.5421109","-81.3790304","1280.917","6871.277","2","0"
"Seattle,  United States","Seattle"," United States","Seattle, King County, Washington, United States","47.6038321","-122.3300624","1290.084","7786.31","1","0"
"San Marcos,  United States","San Marcos"," United States","San Marcos, San Diego County, California, United States","33.1433723","-117.1661449","1325.474","8005.657","1","0"
"University of California,  United States","University of California"," United States","University of California, Berkeley, Derby Street, Claremont, Berkeley, Alameda County, California, 94720-1076, United States","37.8753497","-122.23963364918777","1387.151","8387.934","1","0"
"Mountain View,  United States","Mountain View"," United States","Mountain View, Santa Clara County, California, United States","37.3893889","-122.0832101","1389.878","8404.836","1","0"
"Ann Arbor,  United States","Ann Arbor"," United States","Ann Arbor, Washtenaw County, Michigan, United States","42.2681569","-83.7312291","1650.435","7334.993","4","0"
"Oxford,  United Kingdom","Oxford"," United Kingdom","Oxford, Oxfordshire, South East England, England, United Kingdom","51.7520131","-1.2578499","1740.463","10577.766","1","0"
"Houston,  United States","Houston"," United States","Houston, Harris County, Texas, United States","29.7589382","-95.3676974","1806.364","9852.983","2","0"
"Lille,  France","Lille"," France","Lille, Nord, Hauts-de-France, Metropolitan France, France","50.6365654","3.0635282","1845.434","11228.379","1","0"
"Washington,  United States","Washington"," United States","Washington, District of Columbia, United States","38.8949924","-77.0365581","1852.852","7414.959","7","0"
"Paris,  France","Paris"," France","Paris, Ile-de-France, Metropolitan France, France","48.8566969","2.3514616","1854.187","11282.635","1","0"
"Amsterdam,  Netherlands","Amsterdam"," Netherlands","Amsterdam, North Holland, Netherlands","52.3727598","4.8936041","1860.602","11322.393","1","0"
"Charlottesville,  United States","Charlottesville"," United States","Charlottesville, Virginia, United States","38.029306","-78.4766781","1946.908","8234.045","6","0"
"Heidelberg,  Germany","Heidelberg"," Germany","Heidelberg, Baden-Württemberg, Germany","49.4093582","8.694724","1981.961","12074.576","1","0"
"Grenoble,  France","Grenoble"," France","Grenoble, Isère, Auvergne-Rhône-Alpes, Metropolitan France, France","45.1875602","5.7357819","1984.492","12090.262","1","0"
"Laramie,  United States","Laramie"," United States","Laramie, Albany County, Wyoming, United States","41.311367","-105.591101","1990.36","10887.421","2","0"
"Bern,  Switzerland","Bern"," Switzerland","Bern, Bern-Mittelland administrative district, Bernese Mittelland administrative region, Bern, Switzerland","46.9482713","7.4514512","1994.198","12150.421","1","0"
"Boulder,  United States","Boulder"," United States","Boulder, Boulder County, Colorado, United States","40.0149856","-105.270545","1997.649","10928.401","2","0"
"Marseille,  France","Marseille"," France","Marseille, Bouches-du-Rhône, Provence-Alpes-Côte d'Azur, Metropolitan France, 13000, France","43.2961743","5.3699525","2007.373","12232.082","1","0"
"Berlin,  Germany","Berlin"," Germany","Berlin, 10117, Germany","52.5170365","13.3888599","2028.247","12361.458","1","0"
"Bayreuth,  Germany","Bayreuth"," Germany","Bayreuth, Bavaria, Germany","49.9427202","11.5763079","2033.426","12393.56","1","0"
"Rome,  Italy","Rome"," Italy","Rome, Roma Capitale, Lazio, Italy","41.8933203","12.4829321","2195.294","13396.818","1","0"
"San Diego,  United States","San Diego"," United States","San Diego, San Diego County, California, United States","32.7174202","-117.1627728","2665.177","16099.512","2","0"
"Pasadena,  United States","Pasadena"," United States","Pasadena, California, United States","34.1476452","-118.1444779","2669.88","16128.659","2","0"
"Los Angeles,  United States","Los Angeles"," United States","Los Angeles, California, United States","34.0536909","-118.242766","2678.129","16179.788","2","0"
"Davis,  United States","Davis"," United States","Davis, Yolo County, California, United States","38.545379","-121.7445835","2730.239","16502.766","2","0"
"Santiago,  Chile","Santiago"," Chile","Santiago, Provincia de Santiago, Santiago Metropolitan Region, Chile","-33.4377756","-70.6504502","2750.296","16836.733","1","0"
"Santa Cruz County,  United States","Santa Cruz County"," United States","Santa Cruz County, California, United States","37.050096","-121.9905908","2784.603","16839.715","2","0"
"Bristol,  United Kingdom","Bristol"," United Kingdom","Bristol, City of Bristol, South West England, England, United Kingdom","51.4538022","-2.5972985","3430.684","20844.135","2","0"
"Tucson,  United States","Tucson"," United States","Tucson, Pima County, Arizona, United States","32.2228765","-110.9748477","3668.359","21257.325","3","0"
"Leiden,  Netherlands","Leiden"," Netherlands","Leiden, Zoeterwoude, South Holland, Netherlands","52.1518157","4.4811088666204295","3710.11","22576.023","2","0"
"Austin,  United States","Austin"," United States","Austin, Travis County, Texas, United States","30.2711286","-97.7436995","3814.437","20839.987","4","0"
"Kirtipur,  Nepal","Kirtipur"," Nepal","Kirtipur, Kathmandu, Bagmati Pradesh, 44618, Nepal","27.66765675","85.27621576795738","3878.799","23831.212","1","0"
"Copenhagen,  Denmark","Copenhagen"," Denmark","Copenhagen, Copenhagen Municipality, Capital Region of Denmark, 1357, Denmark","55.6867243","12.5700724","3928.403","23929.007","2","0"
"Tempe,  United States","Tempe"," United States","Tempe, Maricopa County, Arizona, United States","33.4255056","-111.9400091","4900.42","28465.794","4","0"
"Cambridge,  United Kingdom","Cambridge"," United Kingdom","Cambridge, Cambridgeshire, East of England, England, United Kingdom","52.197584649999996","0.13915373736874398","5294.146","32184.252","3","0"
"Canberra,  Australia","Canberra"," Australia","Canberra, District of Canberra Central, Australian Capital Territory, 2601, Australia","-35.2975906","149.1012676","5312.191","32715.403","1","0"
"Duisburg,  Germany","Duisburg"," Germany","Duisburg, North Rhine-Westphalia, Germany","51.434999","6.759562","5734.775","34915.28","3","0"
"Zurich,  Switzerland","Zurich"," Switzerland","Zurich, District Zurich, Zurich, Switzerland","47.3744489","8.5410422","6033.137","36764.532","3","0"
"London,  United Kingdom","London"," United Kingdom","London, Greater London, England, United Kingdom","51.5073219","-0.1276474","8835.603","53714.965","5","0"
"Tokyo,  Japan","Tokyo"," Japan","Tokyo, Japan","35.6828387","139.7594549","17508.459","107469.478","5","0"