"location","city","country","address","latitude","longitude","co2_kg","distance_km","plane trips_amount","train trips_amount"
"Tucson,  United States","Tucson"," United States","Tucson, Pima County, Arizona, United States","32.2228765","-110.9748477","0.0","0.0","0","106"
"El Paso,  United States","El Paso"," United States","El Paso, El Paso County, Texas, United States","31.7754152","-106.464634","226.599","856.358","1","0"
"Santa Barbara,  United States","Santa Barbara"," United States","Santa Barbara, Santa Barbara County, California, United States","34.4221319","-119.7026673","385.792","1693.336","1","0"
"Santa Cruz County,  United States","Santa Cruz County"," United States","Santa Cruz County, California, United States","37.050096","-121.9905908","470.041","2281.515","1","0"
"Mountain View,  United States","Mountain View"," United States","Mountain View, Santa Clara County, California, United States","37.3893889","-122.0832101","475.553","2328.853","1","0"
"Houston,  United States","Houston"," United States","Houston, Harris County, Texas, United States","29.7589382","-95.3676974","567.87","3022.56","1","0"
"Irvine,  United States","Irvine"," United States","Irvine, Orange County, California, United States","33.6856969","-117.8259819","628.566","2637.853","2","0"
"Kane County,  United States","Kane County"," United States","Kane County, Illinois, United States","41.923434","-88.4248315","832.052","4525.929","1","0"
"Dearborn,  United States","Dearborn"," United States","Dearborn, Wayne County, Michigan, United States","42.3222599","-83.1763145","983.076","5375.661","1","0"
"Pasadena,  United States","Pasadena"," United States","Pasadena, California, United States","34.1476452","-118.1444779","989.873","4202.99","3","0"
"Toronto,  Canada","Toronto"," Canada","Toronto, Golden Horseshoe, Ontario, Canada","43.6534817","-79.3839347","1102.63","6047.802","1","0"
"Upton County,  United States","Upton County"," United States","Upton County, Texas, United States","31.3720387","-102.0386055","1160.691","5097.375","3","0"
"New Brunswick,  United States","New Brunswick"," United States","New Brunswick, Middlesex County, New Jersey, United States","40.4862174","-74.4518173","1218.709","6741.806","1","0"
"Providence,  United States","Providence"," United States","Providence, Providence County, Rhode Island, United States","41.8239891","-71.4128343","1236.742","7270.393","1","0"
"New Haven,  United States","New Haven"," United States","New Haven, New Haven County, Connecticut, United States","41.298434349999994","-72.93102342707913","1240.128","7009.981","1","0"
"Cambridge,  United States","Cambridge"," United States","Cambridge, Middlesex County, Massachusetts, United States","42.3750997","-71.1056157","1241.258","7330.131","1","0"
"Hilo,  United States","Hilo"," United States","Hilo, Hawaiʻi County, Hawaii, United States","19.7073734","-155.0815803","1514.409","9176.684","1","0"
"Lemont,  United States","Lemont"," United States","Lemont, Lemont Township, Cook County, Illinois, 60439-4329, United States","41.6737149","-88.0016263","1680.361","9144.37","2","0"
"Evanston,  United States","Evanston"," United States","Evanston, Evanston Township, Cook County, Illinois, United States","42.0447388","-87.6930459","1707.509","9297.212","2","0"
"Baltimore,  United States","Baltimore"," United States","Baltimore, Maryland, United States","39.2908816","-76.610759","2315.08","12713.019","2","0"
"Livermore,  United States","Livermore"," United States","Livermore, Alameda County, California, 94550, United States","37.6820583","-121.7680531","2366.454","11547.137","5","0"
"Newark,  United States","Newark"," United States","Newark, New Castle County, Delaware, United States","39.6852191","-75.7508289","2369.433","13018.597","2","0"
"Belfast,  United Kingdom","Belfast"," United Kingdom","Belfast, County Antrim, Northern Ireland, BT1 5GS, United Kingdom","54.5964411","-5.9302761","2620.737","16033.722","1","0"
"City of Edinburgh,  United Kingdom","City of Edinburgh"," United Kingdom","City of Edinburgh, Scotland, United Kingdom","55.9533456","-3.1883749","2642.892","16171.041","1","0"
"Liverpool,  United Kingdom","Liverpool"," United Kingdom","Liverpool, North West England, England, United Kingdom","53.4071991","-2.99168","2695.899","16499.575","1","0"
"Sheffield,  United Kingdom","Sheffield"," United Kingdom","Sheffield, Yorkshire and the Humber, England, United Kingdom","53.3806626","-1.4702278","2723.481","16670.529","1","0"
"Goleta,  United States","Goleta"," United States","Goleta, Santa Barbara County, California, United States","34.4358295","-119.8276389","2731.247","12014.127","7","0"
"Oxford,  United Kingdom","Oxford"," United Kingdom","Oxford, Oxfordshire, South East England, England, United Kingdom","51.7520131","-1.2578499","2760.468","16899.779","1","0"
"Cambridge,  United Kingdom","Cambridge"," United Kingdom","Cambridge, Cambridgeshire, East of England, England, United Kingdom","52.197584649999996","0.13915373736874398","2776.441","16998.781","1","0"
"Warsaw,  Poland","Warsaw"," Poland","Warsaw, Masovian Voivodeship, Poland","52.2319581","21.0067249","3108.919","19059.482","1","0"
"Padua,  Italy","Padua"," Italy","Padua, Padova, Veneto, Italy","45.4077172","11.8734455","3144.71","19281.315","1","0"
"Budapest,  Hungary","Budapest"," Hungary","Budapest, V. kerület, Central Hungary, Hungary","47.4983815","19.0404707","3210.443","19688.733","1","0"
"Durham,  United States","Durham"," United States","Durham, Durham County, North Carolina, United States","35.996653","-78.9018053","3249.273","17813.855","3","0"
"Urbana,  United States","Urbana"," United States","Urbana, Champaign County, Illinois, United States","40.1117174","-88.207301","3261.981","17726.844","4","0"
"Belgrade,  Serbia","Belgrade"," Serbia","Belgrade, Stari Grad Urban Municipality, City of Belgrade, Central Serbia, 11000, Serbia","44.8178131","20.4568974","3306.818","20286.062","1","0"
"Beijing,  China","Beijing"," China","Beijing, Dongcheng District, Beijing, 100010, China","39.906217","116.3912757","3463.792","21258.992","1","0"
"New York,  United States","New York"," United States","New York, United States","40.7127281","-74.0060152","3674.982","20461.475","3","0"
"Davis,  United States","Davis"," United States","Davis, Yolo County, California, United States","38.545379","-121.7445835","3873.893","19227.442","8","0"
"Chicago,  United States","Chicago"," United States","Chicago, Cook County, Illinois, United States","41.8755616","-87.6244212","4266.715","23231.461","5","0"
"Philadelphia,  United States","Philadelphia"," United States","Philadelphia, Philadelphia County, Pennsylvania, United States","39.9527237","-75.1635262","4812.793","26452.816","4","0"
"Cape Town,  South Africa","Cape Town"," South Africa","Cape Town, City of Cape Town, Western Cape, 8001, South Africa","-33.928992","18.417396","4985.208","30688.756","1","0"
"Pittsburgh,  United States","Pittsburgh"," United States","Pittsburgh, Allegheny County, Pennsylvania, United States","40.4416941","-79.9900861","5301.107","29046.889","5","0"
"Hatfield,  United Kingdom","Hatfield"," United Kingdom","Hatfield, Welwyn Hatfield, Hertfordshire, East of England, England, United Kingdom","51.7634675","-0.2258741","5557.923","34028.801","2","0"
"Stanford,  United States","Stanford"," United States","Stanford, Palo Alto, Santa Clara County, California, United States","37.426540700000004","-122.17029258409187","5731.017","28155.646","12","0"
"Tokyo,  Japan","Tokyo"," Japan","Tokyo, Japan","35.6828387","139.7594549","6179.196","37879.462","2","0"
"Washington,  United States","Washington"," United States","Washington, D.C., Cypress Gardens, Polk County, Florida, United States","27.991240050000002","-81.69091676456975","6238.039","34163.123","6","0"
"Daejeon,  South Korea","Daejeon"," South Korea","Daejeon, South Korea","36.3496","127.3848","6696.447","41085.392","2","0"
"Rio de Janeiro,  Brazil","Rio de Janeiro"," Brazil","Rio de Janeiro, Região Geográfica Imediata do Rio de Janeiro, Região Metropolitana do Rio de Janeiro, Região Geográfica Intermediária do Rio de Janeiro, Rio de Janeiro, Southeast Region, Brazil","-22.9110137","-43.2093727","9250.306","56704.606","3","0"
"Menlo Park,  United States","Menlo Park"," United States","Menlo Park, San Mateo County, California, United States","37.4519671","-122.1779927","10994.419","54050.605","23","0"
"Lyon,  France","Lyon"," France","Lyon, Métropole de Lyon, Departemental constituency of Rhône, Auvergne-Rhône-Alpes, Metropolitan France, France","45.7578137","4.8320114","12021.463","73670.633","4","0"
"Seattle,  United States","Seattle"," United States","Seattle, King County, Washington, United States","47.6038321","-122.3300624","15967.769","86269.261","22","0"
"Princeton,  United States","Princeton"," United States","Princeton, Mercer County, New Jersey, United States","40.3492744","-74.6592958","17020.35","93864.709","14","0"
"Santiago,  Chile","Santiago"," Chile","Santiago, Provincia de Santiago, Santiago Metropolitan Region, Chile","-33.4377756","-70.6504502","52354.866","320513.0","19","0"