"location","city","country","address","latitude","longitude","co2_kg","distance_km","plane trips_amount","train trips_amount"
"Cambridge,  United Kingdom","Cambridge"," United Kingdom","Cambridge, Cambridgeshire, East of England, England, United Kingdom","52.197584649999996","0.13915373736874398","0.0","0.0","0","3"
"London,  United Kingdom","London"," United Kingdom","London, Greater London, England, United Kingdom","51.5073219","-0.1276474","4.719","157.822","0","1"
"Birmingham,  United Kingdom","Birmingham"," United Kingdom","Birmingham, West Midlands Combined Authority, West Midlands, England, United Kingdom","52.4796992","-1.9026911","8.505","284.438","0","1"
"Leeds,  United Kingdom","Leeds"," United Kingdom","Leeds, West Yorkshire, Yorkshire and the Humber, England, United Kingdom","53.7974185","-1.5437941","12.59","421.072","0","1"
"Dublin,  Ireland","Dublin"," Ireland","Dublin, Dublin 1, Leinster, Ireland","53.3497645","-6.2602732","234.578","897.93","1","0"
"Bonn,  Germany","Bonn"," Germany","Bonn, North Rhine-Westphalia, Germany","50.735851","7.10066","256.673","1017.287","1","0"
"Hanover,  Germany","Hanover"," Germany","Hanover, Region Hannover, Lower Saxony, Germany","52.3744779","9.7385532","311.726","1305.54","1","0"
"Strasbourg,  France","Strasbourg"," France","Strasbourg, Bas-Rhin, Grand Est, Metropolitan France, France","48.584614","7.7507127","319.13","1344.306","1","0"
"Heidelberg,  Germany","Heidelberg"," Germany","Heidelberg, Baden-Württemberg, Germany","49.4093582","8.694724","320.551","1351.743","1","0"
"Zurich,  Switzerland","Zurich"," Switzerland","Zurich, District Zurich, Zurich, Switzerland","47.3744489","8.5410422","370.337","1612.416","1","0"
"Potsdam,  Germany","Potsdam"," Germany","Potsdam, Brandenburg, Germany","52.4009309","13.0591397","397.637","1755.36","1","0"
"Garching bei München,  Germany","Garching bei München"," Germany","Garching bei München, Landkreis München, Bavaria, 85748, Germany","48.2513878","11.6509662","416.715","1855.249","1","0"
"Madrid,  Spain","Madrid"," Spain","Madrid, Área metropolitana de Madrid y Corredor del Henares, Community of Madrid, 28001, Spain","40.4167047","-3.7035825","517.062","2684.642","1","0"
"Stockholm,  Sweden","Stockholm"," Sweden","Stockholm, Stockholms kommun, Stockholm County, 111 29, Sweden","59.3251172","18.0710935","523.182","2733.201","1","0"
"Warsaw,  Poland","Warsaw"," Poland","Warsaw, Masovian Voivodeship, Poland","52.2319581","21.0067249","535.829","2833.554","1","0"
"Ankara,  Turkey","Ankara"," Turkey","Ankara, Çankaya, Ankara, Central Anatolia Region, 06420, Turkey","39.9207893","32.8540412","1035.719","5671.622","1","0"
"New York,  United States","New York"," United States","New York, United States","40.7127281","-74.0060152","1829.164","11127.537","1","0"
"University of Maryland,  United States","University of Maryland"," United States","University of Maryland, College Park, University Boulevard East, Berwyn, College Park, Prince George's County, Maryland, 20740, United States","38.99203005","-76.94610290199051","1930.824","11757.627","1","0"
"Berea,  United States","Berea"," United States","Berea, Cuyahoga County, Ohio, 44017, United States","41.3661614","-81.8543026","1975.303","12033.31","1","0"
"Richmond,  United States","Richmond"," United States","Richmond, Virginia, United States","37.5385087","-77.43428","1975.903","12037.027","1","0"
"Roorkee,  India","Roorkee"," India","Roorkee, Haridwar, Uttarakhand, 247667, India","29.8693496","77.8902124","2171.761","13250.961","1","0"
"Austin,  United States","Austin"," United States","Austin, Travis County, Texas, United States","30.2711286","-97.7436995","2581.087","15787.97","1","0"
"Mexico City,  Mexico","Mexico City"," Mexico","Mexico City, Mexico","19.4326296","-99.1331785","2912.451","17841.771","1","0"
"Campinas,  Brazil","Campinas"," Brazil","Campinas, Região Imediata de Campinas, Região Metropolitana de Campinas, Região Geográfica Intermediária de Campinas, São Paulo, Southeast Region, Brazil","-22.90556","-47.06083","3106.524","19044.641","1","0"
"Taipei,  Taiwan","Taipei"," Taiwan","Taipei, Taiwan","25.0375198","121.5636796","3170.868","19443.444","1","0"
"University of California,  United States","University of California"," United States","University of California, Berkeley, Derby Street, Claremont, Berkeley, Alameda County, California, 94720-1076, United States","37.8753497","-122.23963364918777","5588.867","34220.594","2","0"
"Seattle,  United States","Seattle"," United States","Seattle, King County, Washington, United States","47.6038321","-122.3300624","7507.153","45900.512","3","0"
"Santiago,  Chile","Santiago"," Chile","Santiago, Provincia de Santiago, Santiago Metropolitan Region, Chile","-33.4377756","-70.6504502","7637.862","46920.303","2","0"