"location","city","country","address","latitude","longitude","co2_kg","distance_km","plane trips_amount","train trips_amount"
"Bologna,  Italy","Bologna"," Italy","Bologna, Emilia-Romagna, Italy","44.4937577","11.3430308","0.0","0.0","0","31"
"Ferrara,  Italy","Ferrara"," Italy","Ferrara, Emilia-Romagna, Italy","44.766764249999994","11.827938995640167","2.926","97.856","0","1"
"Osservatorio astrofisico di Arcetri,  Italy","Osservatorio astrofisico di Arcetri"," Italy","Osservatorio astrofisico di Arcetri, Via Guglielmo Righini, Pian dei Giullari, Quartiere 3, Florence, Metropolitan City of Florence, Tuscany, 50125, Italy","43.75018505","11.254173557851482","4.963","165.971","0","1"
"Florence,  Italy","Florence"," Italy","Florence, Metropolitan City of Florence, Tuscany, Italy","43.7698712","11.2555757","9.663","323.179","0","2"
"Lecco,  Italy","Lecco"," Italy","Lecco, Lombardy, Italy","45.9005485","9.41202482143963","13.014","435.235","0","1"
"Padua,  Italy","Padua"," Italy","Padua, Padova, Veneto, Italy","45.4077172","11.8734455","13.14","439.46","0","2"
"L'Aquila,  Italy","L'Aquila"," Italy","L'Aquila, Abruzzo, Italy","42.1368853","13.610341022538911","19.128","639.722","0","1"
"Zurich,  Switzerland","Zurich"," Switzerland","Zurich, District Zurich, Zurich, Switzerland","47.3744489","8.5410422","23.123","773.337","0","1"
"Grenoble,  France","Grenoble"," France","Grenoble, Isère, Auvergne-Rhône-Alpes, Metropolitan France, France","45.1875602","5.7357819","26.832","897.376","0","1"
"Turin,  Italy","Turin"," Italy","Turin, Torino, Piemont, Italy","45.0677551","7.6824892","35.384","1183.414","0","2"
"Naples,  Italy","Naples"," Italy","Naples, Napoli, Campania, Italy","40.8359336","14.2487826","56.327","1883.851","0","2"
"Tübingen,  Germany","Tübingen"," Germany","Tübingen, Landkreis Tübingen, Baden-Württemberg, Germany","48.5236164","9.0535531","57.537","1924.314","0","2"
"Brera,  Italy","Brera"," Italy","Brera, Cascina Ronco, Vedano Olona, Varese, Lombardy, 21043, Italy","45.7706425","8.8829619","85.956","2874.787","0","6"
"Milan,  Italy","Milan"," Italy","Milan, Lombardy, Italy","45.4668","9.1905","96.117","3214.622","0","8"
"Geneva,  Switzerland","Geneva"," Switzerland","Geneva, Grand Genève, Geneva, Switzerland","46.2017559","6.1466014","107.207","3585.51","0","4"
"Garching bei München,  Germany","Garching bei München"," Germany","Garching bei München, Landkreis München, Bavaria, 85748, Germany","48.2513878","11.6509662","225.235","7532.934","0","9"
"Cagliari,  Italy","Cagliari"," Italy","Cagliari, Sardinia, Italy","39.2169525","9.1128513","297.327","1230.144","1","0"
"Darmstadt,  Germany","Darmstadt"," Germany","Darmstadt, Hesse, Germany","49.872775","8.651177","303.662","1263.318","1","0"
"Budapest,  Hungary","Budapest"," Hungary","Budapest, V. kerület, Central Hungary, Hungary","47.4983815","19.0404707","322.736","1363.187","1","0"
"Göttingen,  Germany","Göttingen"," Germany","Göttingen, Landkreis Göttingen, Lower Saxony, Germany","51.5328328","9.9351811","364.009","1579.288","1","0"
"Krakow,  Poland","Krakow"," Poland","Krakow, Wieliczka County, Lesser Poland Voivodeship, Poland","50.0469432","19.997153435836697","405.249","1795.212","1","0"
"Amsterdam,  Netherlands","Amsterdam"," Netherlands","Amsterdam, North Holland, Netherlands","52.3727598","4.8936041","436.341","1992.097","1","0"
"Groningen,  Netherlands","Groningen"," Netherlands","Groningen, Netherlands","53.2190652","6.5680077","444.388","2061.21","1","0"
"Suceava,  Romania","Suceava"," Romania","Suceava, Romania","47.53265345","25.834593917414125","476.15","2333.979","1","0"
"Alicante,  Spain","Alicante"," Spain","Alicante, l'Alacantí, Alacant / Alicante, Valencian Community, Spain","38.3436365","-0.4881708","483.478","2396.912","1","0"
"Manchester,  United Kingdom","Manchester"," United Kingdom","Manchester, Greater Manchester, North West England, England, United Kingdom","53.4794892","-2.2451148","532.394","2806.298","1","0"
"Istanbul,  Turkey","Istanbul"," Turkey","Istanbul, Fatih, Istanbul, Marmara Region, 34126, Turkey","41.0096334","28.9651646","559.269","2973.613","1","0"
"Rome,  Italy","Rome"," Italy","Rome, Roma Capitale, Lazio, Italy","41.8933203","12.4829321","562.728","18820.324","0","31"
"Tuzla,  Turkey","Tuzla"," Turkey","Tuzla, Istanbul, Marmara Region, Turkey","40.8166668","29.3008332","571.241","3041.746","1","0"
"Heraklion,  Greece","Heraklion"," Greece","Heraklion, Municipality of Heraklion, Heraklion Regional Unit, Region of Crete, 71202, Greece","35.3400127","25.1343475","582.047","3103.239","1","0"
"Stockholm,  Sweden","Stockholm"," Sweden","Stockholm, Stockholms kommun, Stockholm County, 111 29, Sweden","59.3251172","18.0710935","637.865","3420.877","1","0"
"Palermo,  Italy","Palermo"," Italy","Palermo, Sicily, Italy","38.1112268","13.3524434","681.856","2916.874","2","0"
"Ankara,  Turkey","Ankara"," Turkey","Ankara, Çankaya, Ankara, Central Anatolia Region, 06420, Turkey","39.9207893","32.8540412","682.397","3674.296","1","0"
"Barcelona,  Spain","Barcelona"," Spain","Barcelona, Barcelonès, Barcelona, Catalonia, 08001, Spain","41.3828939","2.1774322","752.563","3287.087","2","0"
"Zielona Góra,  Poland","Zielona Góra"," Poland","Zielona Góra, Lubusz Voivodeship, 65-067, Poland","51.9383777","15.5050408","799.341","3532.011","2","0"
"Moscow,  Russia","Moscow"," Russia","Moscow, Central Federal District, Russia","55.7504461","37.6174943","820.986","4462.955","1","0"
"Santander,  Spain","Santander"," Spain","Santander, Cantabria, Spain","43.4620412","-3.8099719","975.195","4864.588","2","0"
"Oxford,  United Kingdom","Oxford"," United Kingdom","Oxford, Oxfordshire, South East England, England, United Kingdom","51.7520131","-1.2578499","982.746","4929.44","2","0"
"Athens,  Greece","Athens"," Greece","Athens, Municipality of Athens, Regional Unit of Central Athens, Attica, 10667, Greece","37.9839412","23.7283052","996.211","5045.074","2","0"
"Torrejón de Ardoz,  Spain","Torrejón de Ardoz"," Spain","Torrejón de Ardoz, Área metropolitana de Madrid y Corredor del Henares, Community of Madrid, 28850, Spain","40.4587767","-3.4793343","1011.22","5173.978","2","0"
"Paris,  France","Paris"," France","Paris, Ile-de-France, Metropolitan France, France","48.8566969","2.3514616","1148.955","5035.926","3","0"
"Potsdam,  Germany","Potsdam"," Germany","Potsdam, Brandenburg, Germany","52.4009309","13.0591397","1205.006","5329.4","3","0"
"Helsinki,  Finland","Helsinki"," Finland","Helsinki, Helsinki sub-region, Uusimaa, Southern Finland, Mainland Finland, Finland","60.1674881","24.9427473","1453.858","7855.424","2","0"
"Toulouse,  France","Toulouse"," France","Toulouse, Haute-Garonne, Occitania, Metropolitan France, France","43.6044622","1.4442469","1466.929","6374.179","4","0"
"County Durham,  United Kingdom","County Durham"," United Kingdom","County Durham, North East England, England, United Kingdom","54.666667","-1.75","1658.453","8810.711","3","0"
"Crete,  Greece","Crete"," Greece","Crete, Region of Crete, Greece","35.3084749","24.463320724202934","1704.046","9070.162","3","0"
"Prague,  Czechia","Prague"," Czechia","Prague, Czechia","50.0596288","14.446459273258009","1890.479","7938.59","6","0"
"London,  United Kingdom","London"," United Kingdom","London, Greater London, England, United Kingdom","51.5073219","-0.1276474","1892.197","9229.407","4","0"
"Leicester,  United Kingdom","Leicester"," United Kingdom","Leicester, Leicestershire, East Midlands, England, LE1 5YA, United Kingdom","52.6361398","-1.1330789","2015.467","10288.065","4","0"
"Mumbai,  India","Mumbai"," India","Mumbai, Mumbai Suburban, Maharashtra, India","19.0759899","72.8773928","2064.953","12588.962","1","0"
"Noordwijk,  Netherlands","Noordwijk"," Netherlands","Noordwijk, South Holland, Netherlands","52.2410856","4.4461969","2186.087","9998.121","5","0"
"Princeton,  United States","Princeton"," United States","Princeton, Mercer County, New Jersey, United States","40.3492744","-74.6592958","2206.444","13465.924","1","0"
"Hanover,  United States","Hanover"," United States","Hanover, York County, Pennsylvania, 17331, United States","39.8063247","-76.9842735","2269.616","13857.467","1","0"
"Baltimore,  United States","Baltimore"," United States","Baltimore, Maryland, United States","39.2908816","-76.610759","2272.274","13873.94","1","0"
"Bengaluru,  India","Bengaluru"," India","Bengaluru, Bangalore North, Bangalore Urban, Karnataka, India","12.9791198","77.5912997","2332.482","14247.111","1","0"
"Cambridge,  United Kingdom","Cambridge"," United Kingdom","Cambridge, Cambridgeshire, East of England, England, United Kingdom","52.197584649999996","0.13915373736874398","2406.144","11887.992","5","0"
"Chicago,  United States","Chicago"," United States","Chicago, Cook County, Illinois, United States","41.8755616","-87.6244212","2450.57","14979.026","1","0"
"Charleston,  United States","Charleston"," United States","Charleston, Charleston County, South Carolina, United States","32.7876012","-79.9402728","2492.577","15239.382","1","0"
"St. Louis,  United States","St. Louis"," United States","St. Louis, City of Saint Louis, Madison County, Illinois, United States","38.6529545","-90.24111656024635","2580.694","15785.533","1","0"
"Miami,  United States","Miami"," United States","Miami, Miami-Dade County, Florida, United States","25.7741728","-80.19362","2663.564","16299.165","1","0"
"Little Rock,  United States","Little Rock"," United States","Little Rock, Pulaski County, Arkansas, United States","34.7464809","-92.2895948","2719.632","16646.674","1","0"
"Chiang Rai Province,  Thailand","Chiang Rai Province"," Thailand","Chiang Rai Province, Thailand","19.7589517","99.6734592","2729.855","16710.04","1","0"
"Warsaw,  Poland","Warsaw"," Poland","Warsaw, Masovian Voivodeship, Poland","52.2319581","21.0067249","2785.803","13393.305","6","0"
"Cape Town,  South Africa","Cape Town"," South Africa","Cape Town, City of Cape Town, Western Cape, 8001, South Africa","-33.928992","18.417396","2857.152","17499.027","1","0"
"Victoria,  Canada","Victoria"," Canada","Victoria, Capital Regional District, British Columbia, Canada","48.4283182","-123.3649533","2867.335","17562.14","1","0"
"Bangkok,  Thailand","Bangkok"," Thailand","Bangkok, Phra Borom Maha Ratchawang Subdistrict, Phra Nakhon District, Bangkok, 10200, Thailand","13.7544238","100.4930399","2897.485","17749.013","1","0"
"Salt Lake City,  United States","Salt Lake City"," United States","Salt Lake City, Salt Lake County, Utah, United States","40.7596198","-111.8867975","2929.684","17948.578","1","0"
"Rio de Janeiro,  Brazil","Rio de Janeiro"," Brazil","Rio de Janeiro, Região Geográfica Imediata do Rio de Janeiro, Região Metropolitana do Rio de Janeiro, Região Geográfica Intermediária do Rio de Janeiro, Rio de Janeiro, Southeast Region, Brazil","-22.9110137","-43.2093727","3040.167","18633.356","1","0"
"Kanazawa,  Japan","Kanazawa"," Japan","Kanazawa, 昭和大通り, Aokusamachi, Rokumaimachi, Kanazawa, Ishikawa Prefecture, 920-0858, Japan","36.5780499","136.6480247","3084.886","18910.524","1","0"
"Ehime Prefecture,  Japan","Ehime Prefecture"," Japan","Ehime Prefecture, Japan","33.6013646","132.8185275","3103.349","19024.958","1","0"
"Hsinchu,  Taiwan","Hsinchu"," Taiwan","Hsinchu, Taiwan Province, Taiwan","24.8066333","120.9686833","3105.558","19038.65","1","0"
"Miyazaki,  Japan","Miyazaki"," Japan","Miyazaki, Miyazaki Prefecture, 880-8505, Japan","31.9076334","131.4204022","3125.371","19161.454","1","0"
"Saitama Prefecture,  Japan","Saitama Prefecture"," Japan","Saitama Prefecture, Japan","35.9754168","139.4160114","3148.511","19304.876","1","0"
"Southampton,  United Kingdom","Southampton"," United Kingdom","Southampton, South East England, England, United Kingdom","50.9025349","-1.404189","3367.384","16632.741","7","0"
"Leiden,  Netherlands","Leiden"," Netherlands","Leiden, Zoeterwoude, South Holland, Netherlands","52.1518157","4.4811088666204295","3479.851","15843.366","8","0"
"New York,  United States","New York"," United States","New York, United States","40.7127281","-74.0060152","4368.74","26658.222","2","0"
"Washington,  United States","Washington"," United States","Washington, District of Columbia, United States","38.8949924","-77.0365581","4580.525","27970.871","2","0"
"Clemson,  United States","Clemson"," United States","Clemson, Pickens County, South Carolina, 29631, United States","34.6850749","-82.8364111","5029.325","30752.54","2","0"
"Huntsville,  United States","Huntsville"," United States","Huntsville, Madison County, Alabama, United States","34.729847","-86.5859011","5193.865","31772.363","2","0"
"Kyoto,  Japan","Kyoto"," Japan","Kyoto, Kyoto Prefecture, Japan","35.021041","135.7556075","6229.716","38192.587","2","0"
"Boston,  United States","Boston"," United States","Boston, Suffolk County, Massachusetts, United States","42.3602534","-71.0582912","6257.131","38152.853","3","0"
"Pasadena,  United States","Pasadena"," United States","Pasadena, California, United States","34.1476452","-118.1444779","6452.234","39571.754","2","0"
"Puebla,  Mexico","Puebla"," Mexico","Puebla, Mexico","18.833333","-98.0","6515.436","39963.485","2","0"
"Madrid,  Spain","Madrid"," Spain","Madrid, Área metropolitana de Madrid y Corredor del Henares, Community of Madrid, 28001, Spain","40.4167047","-3.7035825","6630.958","34129.191","13","0"
"Osaka Prefecture,  Japan","Osaka Prefecture"," Japan","Osaka Prefecture, Japan","34.6198813","135.490357","9365.561","57418.959","3","0"
"Ann Arbor,  United States","Ann Arbor"," United States","Ann Arbor, Washtenaw County, Michigan, United States","42.2681569","-83.7312291","9445.497","57704.747","4","0"
"Nanjing,  China","Nanjing"," China","Nanjing, Nanjing City, Jiangsu, 210008, China","32.0609736","118.7916458","11474.171","70278.51","4","0"
"Daejeon,  South Korea","Daejeon"," South Korea","Daejeon, South Korea","36.3496","127.3848","11704.682","71707.216","4","0"
"Mexico City,  Mexico","Mexico City"," Mexico","Mexico City, Mexico","19.4326296","-99.1331785","13070.125","80170.259","4","0"
"Greenbelt,  United States","Greenbelt"," United States","Greenbelt, Good Luck Road, New Carrollton, Prince George's County, Maryland, 20706, United States","38.9937333","-76.883065797021","13708.265","83706.154","6","0"
"Santiago,  Chile","Santiago"," Chile","Santiago, Provincia de Santiago, Santiago Metropolitan Region, Chile","-33.4377756","-70.6504502","15586.177","95764.793","4","0"
"Tokyo,  Japan","Tokyo"," Japan","Tokyo, Japan","35.6828387","139.7594549","18976.839","116360.874","6","0"
"Beijing,  China","Beijing"," China","Beijing, Dongcheng District, Beijing, 100010, China","39.906217","116.3912757","20963.541","128255.183","8","0"
"Cambridge,  United States","Cambridge"," United States","Cambridge, Middlesex County, Massachusetts, United States","42.3750997","-71.1056157","47988.989","292614.604","23","0"