"location","city","country","address","latitude","longitude","co2_kg","distance_km","plane trips_amount","train trips_amount"
"Santa Barbara,  United States","Santa Barbara"," United States","Santa Barbara, Santa Barbara County, California, United States","34.4221319","-119.7026673","0.0","0.0","0","5"
"Pasadena,  United States","Pasadena"," United States","Pasadena, California, United States","34.1476452","-118.1444779","8.753","292.748","0","1"
"San Diego,  United States","San Diego"," United States","San Diego, San Diego County, California, United States","32.7174202","-117.1627728","178.222","604.299","1","0"
"Los Alamos,  United States","Los Alamos"," United States","Los Alamos, Los Alamos County, New Mexico, United States","35.893533500000004","-106.28970107056452","490.659","2458.589","1","0"
"Boulder,  United States","Boulder"," United States","Boulder, Boulder County, Colorado, United States","40.0149856","-105.270545","536.355","2837.73","1","0"
"Lawrence,  United States","Lawrence"," United States","Lawrence, Douglas County, Kansas, 66044, United States","38.9719384","-95.2359496","821.153","4463.905","1","0"
"Stanford,  United States","Stanford"," United States","Stanford, Palo Alto, Santa Clara County, California, United States","37.426540700000004","-122.17029258409187","864.942","3209.449","4","0"
"Minneapolis,  United States","Minneapolis"," United States","Minneapolis, Hennepin County, Minnesota, United States","44.9772995","-93.2654692","927.667","5064.146","1","0"
"Iowa City,  United States","Iowa City"," United States","Iowa City, Johnson County, Iowa, United States","41.6612561","-91.5299106","945.292","5163.237","1","0"
"Ann Arbor,  United States","Ann Arbor"," United States","Ann Arbor, Washtenaw County, Michigan, United States","42.2681569","-83.7312291","1175.839","6459.387","1","0"
"Rochester,  United States","Rochester"," United States","Rochester, Monroe, New York, United States","43.157285","-77.615214","1251.476","7465.316","1","0"
"Greenbelt,  United States","Greenbelt"," United States","Greenbelt, Good Luck Road, New Carrollton, Prince George's County, Maryland, 20706, United States","38.9937333","-76.883065797021","1265.05","7631.151","1","0"
"Belfast,  United Kingdom","Belfast"," United Kingdom","Belfast, County Antrim, Northern Ireland, BT1 5GS, United Kingdom","54.5964411","-5.9302761","2705.066","16556.395","1","0"
"Tokyo,  Japan","Tokyo"," Japan","Tokyo, Japan","35.6828387","139.7594549","2834.046","17355.813","1","0"
"London,  United Kingdom","London"," United Kingdom","London, Greater London, England, United Kingdom","51.5073219","-0.1276474","2872.13","17591.862","1","0"
"Stockholm,  Sweden","Stockholm"," Sweden","Stockholm, Stockholms kommun, Stockholm County, 111 29, Sweden","59.3251172","18.0710935","2902.384","17779.379","1","0"
"Linköping,  Sweden","Linköping"," Sweden","Linköping, Linköpings kommun, Östergötland County, 582 24, Sweden","58.4098135","15.6245252","2903.08","17783.688","1","0"
"Santiago,  Chile","Santiago"," Chile","Santiago, Provincia de Santiago, Santiago Metropolitan Region, Chile","-33.4377756","-70.6504502","2975.081","18229.95","1","0"
"Paris,  France","Paris"," France","Paris, Ile-de-France, Metropolitan France, France","48.8566969","2.3514616","2979.203","18255.499","1","0"
"Ulsan,  South Korea","Ulsan"," South Korea","Ulsan, South Korea","35.5391697","129.3119136","3081.566","18889.949","1","0"
"Busan,  South Korea","Busan"," South Korea","Busan, South Korea","35.1799528","129.0752365","3095.102","18973.845","1","0"
"Lausanne,  Switzerland","Lausanne"," Switzerland","Lausanne, District de Lausanne, Vaud, Switzerland","46.5218269","6.6327025","3111.065","19072.781","1","0"
"Chicago,  United States","Chicago"," United States","Chicago, Cook County, Illinois, United States","41.8755616","-87.6244212","3181.906","17435.112","3","0"
"Beijing,  China","Beijing"," China","Beijing, Dongcheng District, Beijing, 100010, China","39.906217","116.3912757","3243.227","19891.929","1","0"
"Dunedin,  New Zealand","Dunedin"," New Zealand","Dunedin, Dunedin City, Otago, 9016, New Zealand","-45.8740984","170.5035755","3692.592","22677.096","1","0"
"Tel Aviv-Yafo,  Israel","Tel Aviv-Yafo"," Israel","Tel Aviv-Yafo, Tel Aviv Subdistrict, Tel Aviv District, Israel","32.0852997","34.7818064","3955.496","24306.585","1","0"
"Madison,  United States","Madison"," United States","Madison, Dane County, Wisconsin, 53703, United States","43.074761","-89.3837613","4065.456","22251.23","4","0"
"Cambridge,  United States","Cambridge"," United States","Cambridge, Middlesex County, Massachusetts, United States","42.3750997","-71.1056157","4231.784","25599.716","3","0"
"Oxford,  United Kingdom","Oxford"," United Kingdom","Oxford, Oxfordshire, South East England, England, United Kingdom","51.7520131","-1.2578499","5695.335","34880.484","2","0"
"Hamburg,  Germany","Hamburg"," Germany","Hamburg, Germany","53.550341","10.000654","5941.898","36408.685","2","0"
"Lisbon,  Portugal","Lisbon"," Portugal","Lisbon, Grande Lisboa, Área Metropolitana de Lisboa, Portugal","38.7077507","-9.1365919","6001.056","36775.346","2","0"
"Heidelberg,  Germany","Heidelberg"," Germany","Heidelberg, Baden-Württemberg, Germany","49.4093582","8.694724","6131.279","37582.47","2","0"
"University of Maryland,  United States","University of Maryland"," United States","University of Maryland, College Park, University Boulevard East, Berwyn, College Park, Prince George's County, Maryland, 20740, United States","38.99203005","-76.94610290199051","6316.54","38101.767","5","0"
"Osservatorio astrofisico di Arcetri,  Italy","Osservatorio astrofisico di Arcetri"," Italy","Osservatorio astrofisico di Arcetri, Via Guglielmo Righini, Pian dei Giullari, Quartiere 3, Florence, Metropolitan City of Florence, Tuscany, 50125, Italy","43.75018505","11.254173557851482","6524.91","40022.204","2","0"
"New York,  United States","New York"," United States","New York, United States","40.7127281","-74.0060152","8028.062","48500.157","6","0"
"Princeton,  United States","Princeton"," United States","Princeton, Mercer County, New Jersey, United States","40.3492744","-74.6592958","11892.965","71825.94","9","0"
"Potsdam,  Germany","Potsdam"," Germany","Potsdam, Brandenburg, Germany","52.4009309","13.0591397","12177.759","74639.358","4","0"