"location","city","country","address","latitude","longitude","co2_kg","distance_km","plane trips_amount","train trips_amount"
"Stuttgart,  Germany","Stuttgart"," Germany","Stuttgart, Baden-Württemberg, Germany","48.7784485","9.1800132","0.0","0.0","0","19"
"Karlsruhe,  Germany","Karlsruhe"," Germany","Karlsruhe, Baden-Württemberg, Germany","49.0068705","8.4034195","3.719","124.394","0","1"
"Mannheim,  Germany","Mannheim"," Germany","Mannheim, Baden-Württemberg, Germany","49.4892913","8.4673098","5.653","189.062","0","1"
"Strasbourg,  France","Strasbourg"," France","Strasbourg, Bas-Rhin, Grand Est, Metropolitan France, France","48.584614","7.7507127","6.406","214.245","0","1"
"Nuremberg,  Germany","Nuremberg"," Germany","Nuremberg, Bavaria, Germany","49.453872","11.077298","9.399","314.362","0","1"
"Freiburg im Breisgau,  Germany","Freiburg im Breisgau"," Germany","Freiburg im Breisgau, Baden-Württemberg, Germany","47.9960901","7.8494005","15.695","524.924","0","2"
"Kassel,  Germany","Kassel"," Germany","Kassel, Niestetal, Hesse, Germany","51.3154546","9.4924096","16.922","565.965","0","1"
"Tübingen,  Germany","Tübingen"," Germany","Tübingen, Landkreis Tübingen, Baden-Württemberg, Germany","48.5236164","9.0535531","17.832","596.4","0","10"
"Nijmegen,  Netherlands","Nijmegen"," Netherlands","Nijmegen, Gelderland, Netherlands","51.8474946","5.8637771","24.789","829.051","0","1"
"Bayreuth,  Germany","Bayreuth"," Germany","Bayreuth, Bavaria, Germany","49.9427202","11.5763079","25.893","865.972","0","2"
"Marburg,  Germany","Marburg"," Germany","Marburg, Landkreis Marburg-Biedenkopf, Hesse, Germany","50.8117327","8.7757742","27.262","911.778","0","2"
"Erlangen,  Germany","Erlangen"," Germany","Erlangen, Bavaria, Germany","49.5978157","11.0038064","28.853","964.981","0","3"
"Siegen,  Germany","Siegen"," Germany","Siegen, Kreis Siegen-Wittgenstein, North Rhine-Westphalia, Germany","50.8749804","8.0227233","29.596","989.821","0","2"
"Paris,  France","Paris"," France","Paris, Ile-de-France, Metropolitan France, France","48.8566969","2.3514616","29.893","999.753","0","1"
"Berlin,  Germany","Berlin"," Germany","Berlin, 10117, Germany","52.5170365","13.3888599","30.532","1021.148","0","1"
"Groningen,  Netherlands","Groningen"," Netherlands","Groningen, Netherlands","53.2190652","6.5680077","31.48","1052.858","0","1"
"Florence,  Italy","Florence"," Italy","Florence, Metropolitan City of Florence, Tuscany, Italy","43.7698712","11.2555757","34.64","1158.53","0","1"
"Munich,  Germany","Munich"," Germany","Munich, Bavaria, Germany","48.1371079","11.5753822","56.953","1904.797","0","5"
"Tautenburg,  Germany","Tautenburg"," Germany","Tautenburg, Verwaltungsgemeinschaft Dornburg-Camburg, Saale-Holzland-Kreis, Thuringia, Germany","50.9915287","11.7157817","73.157","2446.732","0","4"
"Kiel,  Germany","Kiel"," Germany","Kiel, Schleswig-Holstein, Germany","54.3227085","10.135555","74.153","2480.035","0","2"
"Garching bei München,  Germany","Garching bei München"," Germany","Garching bei München, Landkreis München, Bavaria, 85748, Germany","48.2513878","11.6509662","91.47","3059.184","0","8"
"Bochum,  Germany","Bochum"," Germany","Bochum, North Rhine-Westphalia, Germany","51.4818111","7.2196635","99.107","3314.613","0","5"
"Leiden,  Netherlands","Leiden"," Netherlands","Leiden, Zoeterwoude, South Holland, Netherlands","52.1518157","4.4811088666204295","119.865","4008.87","0","4"
"Heidelberg,  Germany","Heidelberg"," Germany","Heidelberg, Baden-Württemberg, Germany","49.4093582","8.694724","155.011","5184.303","0","33"
"Cologne,  Germany","Cologne"," Germany","Cologne, North Rhine-Westphalia, Germany","50.938361","6.959974","172.273","5761.654","0","10"
"Hamburg,  Germany","Hamburg"," Germany","Hamburg, Germany","53.550341","10.000654","223.397","7471.486","0","7"
"Bonn,  Germany","Bonn"," Germany","Bonn, North Rhine-Westphalia, Germany","50.735851","7.10066","268.336","8974.455","0","17"
"Göttingen,  Germany","Göttingen"," Germany","Göttingen, Landkreis Göttingen, Lower Saxony, Germany","51.5328328","9.9351811","278.93","9328.759","0","15"
"Copenhagen,  Denmark","Copenhagen"," Denmark","Copenhagen, Copenhagen Municipality, Capital Region of Denmark, 1357, Denmark","55.6867243","12.5700724","368.677","1603.725","1","0"
"Rome,  Italy","Rome"," Italy","Rome, Roma Capitale, Lazio, Italy","41.8933203","12.4829321","370.923","1615.485","1","0"
"Oxford,  United Kingdom","Oxford"," United Kingdom","Oxford, Oxfordshire, South East England, England, United Kingdom","51.7520131","-1.2578499","372.283","1622.606","1","0"
"Lund,  Sweden","Lund"," Sweden","Lund, Lund Municipality, Skåne County, Sweden","55.7029296","13.1929449","374.332","1633.336","1","0"
"Manchester,  United Kingdom","Manchester"," United Kingdom","Manchester, Greater Manchester, North West England, England, United Kingdom","53.4794892","-2.2451148","425.888","1903.279","1","0"
"Gothenburg,  Sweden","Gothenburg"," Sweden","Gothenburg, Göteborgs Stad, Västra Götaland County, 41106, Sweden","57.7072326","11.9670171","439.54","2019.573","1","0"
"Dublin,  Ireland","Dublin"," Ireland","Dublin, Dublin 1, Leinster, Ireland","53.3497645","-6.2602732","481.386","2378.947","1","0"
"Belfast,  United Kingdom","Belfast"," United Kingdom","Belfast, County Antrim, Northern Ireland, BT1 5GS, United Kingdom","54.5964411","-5.9302761","489.052","2444.783","1","0"
"Madrid,  Spain","Madrid"," Spain","Madrid, Área metropolitana de Madrid y Corredor del Henares, Community of Madrid, 28001, Spain","40.4167047","-3.7035825","525.761","2753.665","1","0"
"Potsdam,  Germany","Potsdam"," Germany","Potsdam, Brandenburg, Germany","52.4009309","13.0591397","611.469","20450.479","0","21"
"Cambridge,  United Kingdom","Cambridge"," United Kingdom","Cambridge, Cambridgeshire, East of England, England, United Kingdom","52.197584649999996","0.13915373736874398","692.609","2973.175","2","0"
"Barcelona,  Spain","Barcelona"," Spain","Barcelona, Barcelonès, Barcelona, Catalonia, 08001, Spain","41.3828939","2.1774322","869.059","3953.081","2","0"
"Toruń,  Poland","Toruń"," Poland","Toruń, Toruń County, Kuyavian-Pomeranian Voivodeship, Poland","53.0145361","18.596583144651557","1115.516","4860.843","3","0"
"Abu Dhabi,  United Arab Emirates","Abu Dhabi"," United Arab Emirates","Abu Dhabi, Abu Dhabi Emirate, United Arab Emirates","24.4538352","54.3774014","1568.503","9511.959","1","0"
"Greenbelt,  United States","Greenbelt"," United States","Greenbelt, Good Luck Road, New Carrollton, Prince George's County, Maryland, 20706, United States","38.9937333","-76.883065797021","2166.55","13218.665","1","0"
"Ann Arbor,  United States","Ann Arbor"," United States","Ann Arbor, Washtenaw County, Michigan, United States","42.2681569","-83.7312291","2231.169","13619.174","1","0"
"Columbus,  United States","Columbus"," United States","Columbus, Franklin, Ohio, United States","39.9622601","-83.0007065","2271.425","13868.678","1","0"
"Evanston,  United States","Evanston"," United States","Evanston, Evanston Township, Cook County, Illinois, United States","42.0447388","-87.6930459","2314.616","14136.381","1","0"
"Bloomington,  United States","Bloomington"," United States","Bloomington, Monroe County, Indiana, United States","39.1670396","-86.5342881","2362.523","14433.307","1","0"
"Bengaluru,  India","Bengaluru"," India","Bengaluru, Bangalore North, Bangalore Urban, Karnataka, India","12.9791198","77.5912997","2405.413","14699.142","1","0"
"Yekaterinburg,  Russia","Yekaterinburg"," Russia","Yekaterinburg, Yekaterinburg Municipality, Sverdlovsk Oblast, Ural Federal District, 620151, Russia","56.839104","60.60825","2472.603","13924.131","2","0"
"Warsaw,  Poland","Warsaw"," Poland","Warsaw, Masovian Voivodeship, Poland","52.2319581","21.0067249","2893.71","12864.763","7","0"
"Tempe,  United States","Tempe"," United States","Tempe, Maricopa County, Arizona, United States","33.4255056","-111.9400091","2994.91","18352.854","1","0"
"Pasadena,  United States","Pasadena"," United States","Pasadena, California, United States","34.1476452","-118.1444779","3074.641","18847.027","1","0"
"Mexico City,  Mexico","Mexico City"," Mexico","Mexico City, Mexico","19.4326296","-99.1331785","3150.009","19314.16","1","0"
"Morelia,  Mexico","Morelia"," Mexico","Morelia, Michoacán, 58000, Mexico","19.7027116","-101.1923818","3185.756","19535.722","1","0"
"Mountain View,  United States","Mountain View"," United States","Mountain View, Santa Clara County, California, United States","37.3893889","-122.0832101","6067.083","37184.584","2","0"