"location","city","country","address","latitude","longitude","co2_kg","distance_km","plane trips_amount","train trips_amount"
"Cambridge,  United Kingdom","Cambridge"," United Kingdom","Cambridge, Cambridgeshire, East of England, England, United Kingdom","52.197584649999996","0.13915373736874398","0.0","0.0","0","45"
"Hertfordshire,  United Kingdom","Hertfordshire"," United Kingdom","Hertfordshire, East of England, England, United Kingdom","51.840052299999996","-0.09785519224523963","2.568","85.873","0","1"
"Brighton,  United Kingdom","Brighton"," United Kingdom","Brighton, Brighton and Hove, South East England, England, United Kingdom","50.8214626","-0.1400561","9.223","308.466","0","1"
"Cardiff,  United Kingdom","Cardiff"," United Kingdom","Cardiff, Wales, CF, United Kingdom","51.4816546","-3.1791934","14.439","482.909","0","1"
"Leiden,  Netherlands","Leiden"," Netherlands","Leiden, Zoeterwoude, South Holland, Netherlands","52.1518157","4.4811088666204295","17.706","592.164","0","1"
"Oxford,  United Kingdom","Oxford"," United Kingdom","Oxford, Oxfordshire, South East England, England, United Kingdom","51.7520131","-1.2578499","19.331","646.523","0","3"
"Liverpool,  United Kingdom","Liverpool"," United Kingdom","Liverpool, North West England, England, United Kingdom","53.4071991","-2.99168","44.804","1498.455","0","3"
"London,  United Kingdom","London"," United Kingdom","London, Greater London, England, United Kingdom","51.5073219","-0.1276474","47.189","1578.218","0","10"
"Amsterdam,  Netherlands","Amsterdam"," Netherlands","Amsterdam, North Holland, Netherlands","52.3727598","4.8936041","186.583","647.865","1","0"
"Paris,  France","Paris"," France","Paris, Ile-de-France, Metropolitan France, France","48.8566969","2.3514616","216.94","806.031","1","0"
"Bochum,  Germany","Bochum"," Germany","Bochum, North Rhine-Westphalia, Germany","51.4818111","7.2196635","250.589","985.432","1","0"
"Bonn,  Germany","Bonn"," Germany","Bonn, North Rhine-Westphalia, Germany","50.735851","7.10066","256.673","1017.287","1","0"
"County Durham,  United Kingdom","County Durham"," United Kingdom","County Durham, North East England, England, United Kingdom","54.666667","-1.75","356.1","1206.806","2","0"
"Potsdam,  Germany","Potsdam"," Germany","Potsdam, Brandenburg, Germany","52.4009309","13.0591397","397.637","1755.36","1","0"
"Copenhagen,  Denmark","Copenhagen"," Denmark","Copenhagen, Copenhagen Municipality, Capital Region of Denmark, 1357, Denmark","55.6867243","12.5700724","406.038","1799.343","1","0"
"Turin,  Italy","Turin"," Italy","Turin, Torino, Piemont, Italy","45.0677551","7.6824892","429.402","1932.504","1","0"
"Milan,  Italy","Milan"," Italy","Milan, Lombardy, Italy","45.4668","9.1905","436.804","1996.076","1","0"
"Pisa,  Italy","Pisa"," Italy","Pisa, Tuscany, Italy","43.7159395","10.4018624","486.507","2422.927","1","0"
"Triest,  Italy","Triest"," Italy","Triest, UTI Giuliana / Julijska MTU, Friuli-Venezia Giulia, Italy","45.6504806","13.7931263","491.223","2463.433","1","0"
"Helsinki,  Finland","Helsinki"," Finland","Helsinki, Helsinki sub-region, Uusimaa, Southern Finland, Mainland Finland, Finland","60.1674881","24.9427473","654.23","3514.008","1","0"
"Munich,  Germany","Munich"," Germany","Munich, Bavaria, Germany","48.1371079","11.5753822","835.114","3719.312","2","0"
"San Cristóbal de La Laguna,  Spain","San Cristóbal de La Laguna"," Spain","San Cristóbal de La Laguna, Santa Cruz de Tenerife, Canary Islands, Spain","28.4857715","-16.3159422","1082.346","5933.766","1","0"
"Zurich,  Switzerland","Zurich"," Switzerland","Zurich, District Zurich, Zurich, Switzerland","47.3744489","8.5410422","1111.01","4837.247","3","0"
"City of Edinburgh,  United Kingdom","City of Edinburgh"," United Kingdom","City of Edinburgh, Scotland, United Kingdom","55.9533456","-3.1883749","1214.309","4705.463","5","0"
"Jerusalem,  Israel","Jerusalem"," Israel","Jerusalem, Jerusalem Subdistrict, Jerusalem District, Israel","31.79592425","35.21198075969497","1234.791","7244.587","1","0"
"Stockholm,  Sweden","Stockholm"," Sweden","Stockholm, Stockholms kommun, Stockholm County, 111 29, Sweden","59.3251172","18.0710935","1569.545","8199.602","3","0"
"Providence,  United States","Providence"," United States","Providence, Providence County, Rhode Island, United States","41.8239891","-71.4128343","1749.729","10635.201","1","0"
"New Haven,  United States","New Haven"," United States","New Haven, New Haven County, Connecticut, United States","41.298434349999994","-72.93102342707913","1793.332","10905.449","1","0"
"Ithaca,  United States","Ithaca"," United States","Ithaca, Ithaca Town, Tompkins County, New York, United States","42.4396039","-76.4968019","1841.37","11203.194","1","0"
"Henrietta,  United States","Henrietta"," United States","Henrietta, Monroe, New York, United States","43.0611781","-77.6338983","1850.471","11259.597","1","0"
"Toronto,  Canada","Toronto"," Canada","Toronto, Golden Horseshoe, Ontario, Canada","43.6534817","-79.3839347","1872.348","11395.194","1","0"
"Waterloo,  Canada","Waterloo"," Canada","Waterloo, Region of Waterloo, Southwestern Ontario, Ontario, Canada","43.4652699","-80.5222961","1899.454","11563.196","1","0"
"Pittsburgh,  United States","Pittsburgh"," United States","Pittsburgh, Allegheny County, Pennsylvania, United States","40.4416941","-79.9900861","1959.374","11934.581","1","0"
"Batavia,  United States","Batavia"," United States","Batavia, Batavia Township, Kane County, Illinois, 60510, United States","41.8500284","-88.3125738","2091.614","12754.206","1","0"
"Minneapolis,  United States","Minneapolis"," United States","Minneapolis, Hennepin County, Minnesota, United States","44.9772995","-93.2654692","2108.082","12856.279","1","0"
"Mumbai,  India","Mumbai"," India","Mumbai, Mumbai Suburban, Maharashtra, India","19.0759899","72.8773928","2349.018","14349.601","1","0"
"Boulder,  United States","Boulder"," United States","Boulder, Boulder County, Colorado, United States","40.0149856","-105.270545","2454.4","15002.76","1","0"
"Garching bei München,  Germany","Garching bei München"," Germany","Garching bei München, Landkreis München, Bavaria, 85748, Germany","48.2513878","11.6509662","2500.291","11131.493","6","0"
"Seattle,  United States","Seattle"," United States","Seattle, King County, Washington, United States","47.6038321","-122.3300624","2502.384","15300.171","1","0"
"Houston,  United States","Houston"," United States","Houston, Harris County, Texas, United States","29.7589382","-95.3676974","2547.457","15579.534","1","0"
"Tucson,  United States","Tucson"," United States","Tucson, Pima County, Arizona, 85701, United States","32.2228765","-110.9748477","2776.441","16998.781","1","0"
"Santa Cruz County,  United States","Santa Cruz County"," United States","Santa Cruz County, California, United States","37.050096","-121.9905908","2815.746","17242.392","1","0"
"Riverside,  United States","Riverside"," United States","Riverside, Riverside County, California, United States","33.9533546","-117.3961623","2836.01","17367.989","1","0"
"Los Angeles,  United States","Los Angeles"," United States","Los Angeles, California, United States","34.0536909","-118.242766","2846.936","17435.708","1","0"
"Morelia,  Mexico","Morelia"," Mexico","Morelia, Michoacán, 58000, Mexico","19.7027116","-101.1923818","2947.32","18057.889","1","0"
"Guangzhou,  China","Guangzhou"," China","Guangzhou, Guangzhou City, Guangdong Province, 510030, China","23.1301964","113.2592945","3079.79","18878.94","1","0"
"Tokyo,  Japan","Tokyo"," Japan","Tokyo, Japan","35.6828387","139.7594549","3095.114","18973.922","1","0"
"Taipei,  Taiwan","Taipei"," Taiwan","Taipei, Taiwan","25.0375198","121.5636796","3170.868","19443.444","1","0"
"Bellville,  South Africa","Bellville"," South Africa","Bellville, City of Cape Town, Western Cape, South Africa","-33.8837334","18.636870177662715","3176.626","19479.133","1","0"
"Princeton,  United States","Princeton"," United States","Princeton, Mercer County, New Jersey, United States","40.3492744","-74.6592958","3702.393","22528.19","2","0"
"Columbus,  United States","Columbus"," United States","Columbus, Franklin County, Ohio, United States","39.9622601","-83.0007065","4064.4","24771.918","2","0"
"Perth,  Australia","Perth"," Australia","Perth, City of Perth, Western Australia, 6000, Australia","-31.9527121","115.8604796","4701.214","28928.559","1","0"
"Chicago,  United States","Chicago"," United States","Chicago, Cook County, Illinois, United States","41.8755616","-87.6244212","6232.734","38001.642","3","0"
"New York,  United States","New York"," United States","New York, United States","40.7127281","-74.0060152","7316.655","44510.146","4","0"
"Baltimore,  United States","Baltimore"," United States","Baltimore, Maryland, United States","39.2908816","-76.610759","7666.937","46681.202","4","0"
"Cambridge,  United States","Cambridge"," United States","Cambridge, Middlesex County, Massachusetts, United States","42.3750997","-71.1056157","8655.476","52598.533","5","0"
"Stanford,  United States","Stanford"," United States","Stanford, Palo Alto, Santa Clara County, California, United States","37.426540700000004","-122.17029258409187","14035.153","85941.869","5","0"
"University of California,  United States","University of California"," United States","University of California, Berkeley, Milvia Street, South Berkeley, Berkeley, Alameda County, California, 95704, United States","37.8753497","-122.23963364918777","16766.601","102661.781","6","0"