location,city,country,address,latitude,longitude,co2_kg,distance_km,plane trips_amount,train trips_amount
"Firenze,  Italy",Firenze, Italy,"Osservatorio astrofisico di Arcetri, Via Guglielmo Righini, Pian dei Giullari, Quartiere 3, Florence, Metropolitan City of Florence, Tuscany, 50125, Italy",43.75018505,11.2541735579,0,0,0,12
"Bologna,  Italy",Bologna, Italy,"Bologna, Emilia-Romagna, Italy",44.4937577,11.3430308,9.663,323.179,0,2
"Rome,  Italy",Rome, Italy,"Rome, Roma Capitale, Lazio, Italy",41.8933203,12.4829321,13.839,462.835,0,1
"Pisa,  Italy",Pisa, Italy,"Pisa, Tuscany, Italy",43.7159395,10.4018624,16.467,550.741,0,4
"Nice,  France",Nice, France,"Nice, Maritime Alps, Provence-Alpes-Côte d'Azur, Metropolitan France, France",43.7009358,7.2683912,19.16,640.805,0,1
"Ljubljana,  Slovenia",Ljubljana, Slovenia,"Ljubljana, Upravna Enota Ljubljana, 1000, Slovenia",46.0499803,14.5068602,21.544,720.539,0,1
"Triest,  Italy",Triest, Italy,"Triest, UTI Giuliana / Julijska MTU, Friuli-Venezia Giulia, Italy",45.6504806,13.7931263,34.647,1158.773,0,2
"Padua,  Italy",Padua, Italy,"Padua, Padova, Veneto, Italy",45.4077172,11.8734455,56.384,1885.768,0,5
"Garching bei München,  Germany",Garching bei München, Germany,"Garching bei München, Landkreis München, Bavaria, 85748, Germany",48.2513878,11.6509662,119.422,3994.042,0,4
"Tübingen,  Germany",Tübingen, Germany,"Tübingen, Landkreis Tübingen, Baden-Württemberg, Germany",48.5236164,9.0535531,274.411,1110.164,1,0
"Catania,  Italy",Catania, Italy,"Catania, Sicily, Italy",37.5022355,15.08738,355.762,1536.106,1,0
"Paris,  France",Paris, France,"Paris, Ile-de-France, Metropolitan France, France",48.8566969,2.3514616,400.991,1772.917,1,0
"Uccle - Ukkel,  Belgium",Uccle - Ukkel, Belgium,"Uccle - Ukkel, Brussels-Capital, 1180, Belgium",50.8035441,4.3338445,421.227,1878.873,1,0
"Bordeaux,  France",Bordeaux, France,"Bordeaux, Gironde, New Aquitaine, Metropolitan France, France",44.841225,-0.5800364,424.669,1896.893,1,0
"Noordwijk,  Netherlands",Noordwijk, Netherlands,"Noordwijk, South Holland, Netherlands",52.2410856,4.4461969,453.198,2136.868,1,0
"Groningen,  Netherlands",Groningen, Netherlands,"Groningen, Netherlands",53.2190652,6.5680077,461.811,2210.834,1,0
"Warsaw,  Poland",Warsaw, Poland,"Warsaw, Masovian Voivodeship, Poland",52.2319581,21.0067249,480.571,2371.949,1,0
"London,  United Kingdom",London, United Kingdom,"London, Greater London, England, United Kingdom",51.5073219,-0.1276474,485.889,2417.619,1,0
"Madrid,  Spain",Madrid, Spain,"Madrid, Área metropolitana de Madrid y Corredor del Henares, Community of Madrid, 28001, Spain",40.4167047,-3.7035825,504.17,2574.625,1,0
"Aarhus,  Denmark",Aarhus, Denmark,"Aarhus, Aarhus Municipality, Central Denmark Region, 8000, Denmark",56.1496278,10.2134046,526.192,2757.088,1,0
"Liverpool,  United Kingdom",Liverpool, United Kingdom,"Liverpool, North West England, England, United Kingdom",53.4071991,-2.99168,561.64,2987.111,1,0
"Barcelona,  Spain",Barcelona, Spain,"Barcelona, Barcelonès, Barcelona, Catalonia, 08001, Spain",41.3828939,2.1774322,727.36,3155.128,2,0
"Brussels,  Belgium",Brussels, Belgium,"Brussels, City of Brussels, Brussels-Capital, Belgium",50.8465573,4.351697,844.837,3770.223,2,0
"Palermo,  Italy",Palermo, Italy,"Palermo, Sicily, Italy",38.1112268,13.3524434,935.827,3920.011,3,0
"Birmingham,  United Kingdom",Birmingham, United Kingdom,"Birmingham, West Midlands Combined Authority, West Midlands, England, United Kingdom",52.4796992,-1.9026911,1048.795,5485.698,2,0
"Keele,  United Kingdom",Keele, United Kingdom,"Keele, Newcastle-under-Lyme, Staffordshire, West Midlands, England, United Kingdom",53.0038078,-2.2877425,1077.756,5715.156,2,0
"Tehran,  Iran",Tehran, Iran,"Tehran, بخش مرکزی شهرستان تهران, Tehran County, Iran",35.6892523,51.3896004,1241.053,7021.561,1,0
"Heidelberg,  Germany",Heidelberg, Germany,"Heidelberg, Baden-Württemberg, Germany",49.4093582,8.694724,1253.067,5254.419,4,0
"Potsdam,  Germany",Potsdam, Germany,"Potsdam, Brandenburg, Germany",52.4009309,13.0591397,1290.093,5813.721,3,0
"Uppsala,  Sweden",Uppsala, Sweden,"Uppsala, Uppsala kommun, Uppsala County, 753 20, Sweden",59.8586126,17.6387436,1366.772,7359.845,2,0
"Abu Dhabi,  United Arab Emirates",Abu Dhabi, United Arab Emirates,"Abu Dhabi, Abu Dhabi Emirate, United Arab Emirates",24.4538352,54.3774014,1468.689,8893.305,1,0
"Cambridge,  United Kingdom",Cambridge, United Kingdom,"Cambridge, Cambridgeshire, East of England, England, United Kingdom",52.19758465,0.1391537374,2474.255,12472.945,5,0
"Vilnius,  Lithuania",Vilnius, Lithuania,"Vilnius, Vilnius city municipality, Vilnius County, Lithuania",54.6870458,25.2829111,2957.874,15787.284,5,0
"Tokyo,  Japan",Tokyo, Japan,"Tokyo, Japan",35.6828387,139.7594549,3184.27,19526.512,1,0
"Melbourne,  Australia",Melbourne, Australia,"Melbourne, City of Melbourne, Victoria, Australia",-37.8142176,144.9631608,5233.54,32227.925,1,0
"Beijing,  China",Beijing, China,"Beijing, Dongcheng District, Beijing, 100010, China",39.906217,116.3912757,5277.07,32288.07,2,0
"Canberra,  Australia",Canberra, Australia,"Canberra, District of Canberra Central, Australian Capital Territory, 2601, Australia",-35.2975906,149.1012676,5300.671,32644.003,1,0
"Rio de Janeiro,  Brazil",Rio de Janeiro, Brazil,"Rio de Janeiro, Região Geográfica Imediata do Rio de Janeiro, Região Metropolitana do Rio de Janeiro, Região Geográfica Intermediária do Rio de Janeiro, Rio de Janeiro, Southeast Region, Brazil",-22.9110137,-43.2093727,6042.858,37034.437,2,0
"Santiago,  Chile",Santiago, Chile,"Santiago, Provincia de Santiago, Santiago Metropolitan Region, Chile",-33.4377756,-70.6504502,11644.831,71545.914,3,0
"Sydney,  Australia",Sydney, Australia,"Sydney, New South Wales, Australia",-33.8548157,151.2164539,15991.502,98486.657,3,0
