"location","city","country","address","latitude","longitude","co2_kg","distance_km","plane trips_amount","train trips_amount"
"Leiden,  Netherlands","Leiden"," Netherlands","Leiden, Zoeterwoude, South Holland, Netherlands","52.1518157","4.4811088666204295","0.0","0.0","0","6"
"Noordwijk,  Netherlands","Noordwijk"," Netherlands","Noordwijk, South Holland, Netherlands","52.2410856","4.4461969","1.221","40.83","0","2"
"Amsterdam,  Netherlands","Amsterdam"," Netherlands","Amsterdam, North Holland, Netherlands","52.3727598","4.8936041","2.231","74.61","0","1"
"Radboud,  Netherlands","Radboud"," Netherlands","Radboud, Schelfhorst, Almelo, Overijssel, Netherlands, 7608JK, Netherlands","52.3783791","6.6702725","9.035","302.173","0","1"
"Heidelberg,  Germany","Heidelberg"," Germany","Heidelberg, Baden-Württemberg, Germany","49.4093582","8.694724","25.416","850.038","0","1"
"Bonn,  Germany","Bonn"," Germany","Bonn, North Rhine-Westphalia, Germany","50.735851","7.10066","28.738","961.144","0","2"
"Zurich,  Switzerland","Zurich"," Switzerland","Zurich, District Zurich, Zurich, Switzerland","47.3744489","8.5410422","293.772","1211.535","1","0"
"City of Edinburgh,  United Kingdom","City of Edinburgh"," United Kingdom","City of Edinburgh, Scotland, United Kingdom","55.9533456","-3.1883749","624.826","2618.27","2","0"
"Jerusalem,  Israel","Jerusalem"," Israel","Jerusalem, Jerusalem Subdistrict, Jerusalem District, Israel","31.79592425","35.21198075969497","1216.57","6715.025","1","0"
"Princeton,  United States","Princeton"," United States","Princeton, Mercer County, New Jersey, United States","40.3492744","-74.6592958","1941.856","11826.003","1","0"
"Philadelphia,  United States","Philadelphia"," United States","Philadelphia, Philadelphia County, Pennsylvania, United States","39.9527237","-75.1635262","1961.637","11948.607","1","0"
"Hamilton,  Canada","Hamilton"," Canada","Hamilton, Golden Horseshoe, Ontario, Canada","43.2560802","-79.8728583","1978.278","12051.752","1","0"
"Waterloo,  Canada","Waterloo"," Canada","Waterloo, Region of Waterloo, Southwestern Ontario, Ontario, Canada","43.4652699","-80.5222961","1986.078","12100.097","1","0"
"Baltimore,  United States","Baltimore"," United States","Baltimore, Maryland, United States","39.2908816","-76.610759","2007.267","12231.423","1","0"
"Evanston,  United States","Evanston"," United States","Evanston, Evanston Township, Cook County, Illinois, United States","42.0447388","-87.6930459","4318.333","26345.8","2","0"
"Stony Brook,  United States","Stony Brook"," United States","Stony Brook, Suffolk County, New York, United States","40.9087015","-73.13960360056436","5692.241","34651.654","3","0"
"Tokyo,  Japan","Tokyo"," Japan","Tokyo, Japan","35.6828387","139.7594549","9131.346","55967.289","3","0"
"Concepcion,  Chile","Concepcion"," Chile","Concepcion, Provincia de Concepción, Biobío Region, Chile","-36.8270795","-73.0502399","20181.235","124035.394","5","0"