"location","city","country","address","latitude","longitude","co2_kg","distance_km","plane trips_amount","train trips_amount"
"Taichung,  Taiwan","Taichung"," Taiwan","Taichung, Taiwan","24.163162","120.6478282","0.0","0.0","0","37"
"Taoyuan City,  Taiwan","Taoyuan City"," Taiwan","Taoyuan City, Taiwan","24.9929995","121.3010003","169.647","5673.798","0","25"
"Hsinchu,  Taiwan","Hsinchu"," Taiwan","Hsinchu, Taiwan Province, Taiwan","24.8066333","120.9686833","220.838","7385.879","0","47"
"Shanghai,  China","Shanghai"," China","Shanghai, Huangpu District, Shanghai, 200001, China","31.2322758","121.4692071","364.218","1580.38","1","0"
"Taipei,  Taiwan","Taipei"," Taiwan","Taipei, Taiwan","25.0375198","121.5636796","489.758","16379.851","0","61"
"Beijing,  China","Beijing"," China","Beijing, Dongcheng District, Beijing, 100010, China","39.906217","116.3912757","667.698","3590.646","1","0"
"Tokyo,  Japan","Tokyo"," Japan","Tokyo, Japan","35.6828387","139.7594549","1645.572","8946.398","2","0"
"Pasadena,  United States","Pasadena"," United States","Pasadena, California, United States","34.1476452","-118.1444779","3596.512","22081.594","1","0"
"Cambridge,  United States","Cambridge"," United States","Cambridge, Middlesex County, Massachusetts, United States","42.3750997","-71.1056157","4073.362","25037.119","1","0"